,Venue_ID,Lat,Long,category,country
0,523722e111d2a88888ee69ed,47.630391,-122.128949,Office,US
1,523397f111d2240e3d1eb120,47.596266,-122.333193,Athletics & Sports,US
2,522e723611d214f754b6b263,47.547573,-122.314299,Convenience Store,US
3,522cb5a711d20c34ef60a041,47.61941,-122.320922,American Restaurant,US
4,522b4e6b11d2b45ffb77139d,47.436943,-122.294802,Hotel,US
5,522a7b7f498edcff52808150,47.610452,-122.337063,Clothing Store,US
6,52273fbe11d232d9f09e9a7b,47.484891,-122.148015,Bus Station,US
7,522663b311d253816f0c1786,47.707844,-122.332841,Doctor's Office,US
8,5223dc0111d2c1293b9187a1,47.596691,-122.327713,Soup Place,US
9,522229ce11d2b60cd0bfe10f,47.587364,-122.334125,Event Space,US
10,522131a211d21d67d032a8d4,47.606213,-122.413898,Lake,US
11,5220f09911d273f0e0376730,47.610824,-122.33419,Arcade,US
12,52207990498e91707ca377bb,47.62187,-122.351738,Music Venue,US
13,521f96a711d224c8ca78b4c4,47.451484,-122.295112,Travel Lounge,US
14,521bd83611d276b4d5e4e01c,47.713141,-122.167537,Campaign Office,US
15,52193fee11d2341887460d24,47.561268,-122.305618,Convenience Store,US
16,52166a6b8bbd517933e29754,47.604499,-122.33344,Japanese Restaurant,US
17,52156bbd498eb27e8d0eb520,47.62235,-122.320874,Cocktail Bar,US
18,5211374511d2494a589eb2a0,47.662308,-122.2991,Food Truck,US
19,520ffe0511d2889d7dfc01f5,47.55542,-122.361404,Home (private),US
20,520f79ef11d20abf2c53143d,47.68192,-122.260515,Other Great Outdoors,US
21,520d288311d2c4bf8f16dcbb,47.618847,-122.360112,Other Great Outdoors,US
22,520bc7a9498ecbff76fb96e6,47.609295,-122.338516,Food Truck,US
23,520ba0b411d27deba8f3262f,47.480364,-122.171769,Government Building,US
24,520a898d11d24085f30f68be,47.614755,-122.344506,Asian Restaurant,US
25,520947d611d2031f1ae47e8a,47.666237,-122.383192,Cocktail Bar,US
26,5206c9ce11d218f80b8e0f3c,47.616489,-122.31823,General Entertainment,US
27,51fd5c41498e83667915dfd8,47.569794,-122.277861,Harbor / Marina,US
28,51fc897b498eda6d6e53cbe7,47.635798,-122.349769,Home (private),US
29,51fc26cb454a479c5483b459,47.628554,-122.339566,Airport,US
30,51fab8aa498ed11315cd3047,47.624037,-122.336873,Drugstore / Pharmacy,US
31,51f94df7498e7dbcec22afb6,47.678994,-122.178779,Spa / Massage,US
32,51f2aecd498e89a83cca7efa,47.614081,-122.319538,Music Venue,US
33,51eee79d498ecaa2b5ebbac6,47.690596,-122.360335,Moving Target,US
34,51ee8a6f498e2a1781f39d2b,47.740326,-122.229032,Bus Line,US
35,51ee2bd2498e2a177f3e7a57,47.505669,-122.241454,Home (private),US
36,51edc6ba498eb936cf2b60a8,47.667833,-122.313077,Bar,US
37,51ed990c498eddb0726e6d31,47.610998,-122.331302,Convention Center,US
38,51ed4bfd498e2a04469ff623,47.611299,-122.332998,Convention Center,US
39,51ec3b94498e9d5f798deed6,47.611001,-122.332089,Event Space,US
40,51ec159e498ec219cc26d304,47.682501,-122.355302,Moving Target,US
41,51ec1270498e08f7c7ac88b1,47.622934,-122.353967,Concert Hall,US
42,51eaf683498e843965d42291,47.608594,-122.34037,French Restaurant,US
43,51ead938498eae2367ab8c42,47.622312,-122.35226,Fair,US
44,51e99310498e04c5b9991a62,47.622127,-122.352063,General Entertainment,US
45,51e61127498e18d177f41aee,47.621268,-122.349637,Light Rail,US
46,51e1976a498e328ae7aeda3d,47.668602,-122.384539,Fair,US
47,51e0a796498e1df38a04fed8,47.56126,-122.386654,General Entertainment,US
48,51e04cdc498e301c89cbb99c,47.660637,-122.378487,Factory,US
49,51dc33ac498e92b2cda1ab84,47.59939,-122.331494,Miscellaneous Shop,US
50,51db14ec498ed7fa08f84388,47.604048,-122.334014,Bank,US
51,51d77846498e309c5e2cbe92,47.667176,-122.378037,Assisted Living,US
52,51d5f60b7dd23b0a0df8663f,47.620469,-122.331197,Lounge,US
53,51d5c4b1498ea14995fee5b0,47.444425,-122.294717,General Entertainment,US
54,51d48fa4498ebdf66067500a,47.613956,-122.3204,Art Gallery,US
55,51d48ad0498e120a84b5e042,47.679137,-122.176982,Home (private),US
56,51d44f64454ac616252473d9,47.600215,-122.334341,Tech Startup,US
57,51d37f94498e712dd888c466,47.614132,-122.323508,Cosmetics Shop,US
58,51d37b1a498e712dd86d1ec3,47.676537,-122.106743,Car Wash,US
59,51d2ea13498ebf0edc2bb373,47.651902,-122.350627,Tech Startup,US
60,51d20e0a498e8a7c7ca29160,47.731937,-122.294708,Residential Building (Apartment / Condo),US
61,51d111f3498e9b300fbfab0e,47.614413,-122.345654,Residential Building (Apartment / Condo),US
62,51ce5c0f498ea91e559ed732,47.624726,-122.347108,Japanese Restaurant,US
63,51cb44f3498e1f289782f9b6,47.666127,-122.382735,Italian Restaurant,US
64,51ca2557498e9024d7f963c2,47.625325,-122.320804,Bank,US
65,51c9ea7e498e996b65259ec1,47.498111,-122.202601,Mexican Restaurant,US
66,51c9ac45498ef6a4b265b5a1,47.634061,-122.307903,Campground,US
67,51c857d6498efa7862edbddf,47.524424,-122.312669,Shrine,US
68,51c85469498e29ad0150b59e,47.523982,-122.311826,American Restaurant,US
69,51c7a16c498e4ffa35d33d96,47.729841,-122.260158,Home (private),US
70,51c728a9498ebd075f52480e,47.681226,-122.181784,General Travel,US
71,51c5e7cb498e977edbcc1e15,47.617615,-122.124057,General Entertainment,US
72,51c508e8498e7394923fb656,47.559658,-122.369433,Golf Course,US
73,51c4ba13498ec60978ddff35,47.661074,-122.374279,Brewery,US
74,51c49ee0498e79713182dfa7,47.616701,-122.201655,Mexican Restaurant,US
75,51c38d2e498e6c892eb017af,47.671925,-122.094363,Gas Station / Garage,US
76,51c29a42498e2d5d1a2127c0,47.572923,-122.370529,Design Studio,US
77,51c246bd498e15e865d1f0a0,47.662576,-122.31332,Coffee Shop,US
78,51c1286f498e2505fd764fbe,47.609567,-122.34127,Brewery,US
79,51c0e56a498e2febba59335d,47.718629,-122.177227,Laboratory,US
80,51bf5592abd889e22a47c10b,47.615595,-122.340038,Deli / Bodega,US
81,51becdb1454a4602c722a654,47.443676,-122.303109,American Restaurant,US
82,51bcc24e498e2e1c08c57217,47.615379,-122.199211,Market,US
83,51bca8b6498e16bffa1d1df3,47.671415,-122.128662,Residential Building (Apartment / Condo),US
84,51bb8d6d498e56dd116f59ac,47.54066,-122.334651,Moving Target,US
85,51bb6e05498e11e928587705,47.470173,-122.252799,Playground,US
86,51b87061498e254ce3e25552,47.557614,-122.333913,Storage Facility,US
87,51b68c2f498e8cc17bca61c9,47.611573,-122.34954,Convention Center,US
88,51b2a53c498e28ccb1a91ab7,47.481421,-122.204453,Afghan Restaurant,US
89,51b215df498e228948ae8c59,47.486423,-122.267586,Factory,US
90,51b12ee8498e26423617debd,47.608758,-122.296423,Home (private),US
91,51b11d33498e6d25d618666f,47.611636,-122.345953,Tech Startup,US
92,51b0e5f0498e8743726d5e24,47.659537,-122.313385,Chinese Restaurant,US
93,51ae60ae498edd4acc836cce,47.662362,-122.298576,Furniture / Home Store,US
94,51ad37ec498e888a24b4a6ec,47.537476,-122.197647,Residential Building (Apartment / Condo),US
95,51aa6a54498eee8ab54b8f53,47.464,-122.287858,Light Rail,US
96,51aa3a47498ecb83403147cd,47.516393,-122.312338,Golf Course,US
97,51a78a53498ee0057e4624d6,47.616458,-122.345581,General Entertainment,US
98,51a6d7df498ed0f911a5708a,47.444424,-122.290921,Event Space,US
99,51a6011a498e869101a10917,47.610161,-122.339915,Building,US
100,51a5151aabd814ecba283eca,47.675292,-122.201968,Pizza Place,US
101,51a2a3f0498e183112e1ac8e,47.616223,-122.203787,Women's Store,US
102,51a26d6b498e0c5ab8d221f8,47.57527,-122.330028,Building,US
103,51a179fb498e1de14990ca56,47.684137,-122.355082,Residential Building (Apartment / Condo),US
104,51a144bd498ea3d3e1211a07,47.628437,-122.331711,Cocktail Bar,US
105,51a13259498e857f8ef13e90,47.567505,-122.357812,Home (private),US
106,51a11b76498ea89718ede22b,47.606802,-122.330662,Gay Bar,US
107,51a1161b498e0423103e0aea,47.610335,-122.342451,Bar,US
108,51a0be5e498ec0256db15650,47.662105,-122.353553,General Travel,US
109,519f884e498ed846e637d777,47.649301,-122.30959,Medical School,US
110,519b7212498eb8d85d987ec9,47.615289,-122.333615,Building,US
111,519abd9c498e955d6d5b61e4,47.653005,-122.360122,Whisky Bar,US
112,51997a7a498e247a313b2ef9,47.469818,-122.24742,Soccer Stadium,US
113,51984294498eaee01db81f5c,47.568928,-122.283789,Home (private),US
114,5197be5f498eacef1bbdd014,47.614586,-122.340094,Department Store,US
115,51942929498e50eeee471283,47.611144,-122.334095,Other Nightlife,US
116,5194285b498ef41400e2a345,47.607906,-122.292605,Bus Line,US
117,5194273e498e3a9d51ac6982,47.611544,-122.320106,Design Studio,US
118,51940262498e91fb39a6efd2,47.627798,-122.3834,Boat or Ferry,US
119,51937d73498e6fb8fbb4a057,47.615124,-122.194458,Moving Target,US
120,5192c48e498e1b68e7c2e590,47.646106,-122.140712,Bus Station,US
121,519240cb498e4913b99d7e90,47.751412,-122.249956,Bus Station,US
122,51905aa4498e977f5be3974e,47.70279,-122.19623,Wine Bar,US
123,518f3367498e5714aa8436dc,47.608758,-122.296423,Home (private),US
124,518ead4b498e50c4563846c0,47.591813,-122.308388,Moving Target,US
125,518e7c27498e89b9f8b14ecc,47.595458,-122.331527,Event Space,US
126,518d8a44498e4c69921b30bf,47.462989,-122.16861,Home (private),US
127,518d88af498e32254c31a14e,47.622127,-122.32088,Boutique,US
128,518d7d6c498ecf5542459fc6,47.603279,-122.290115,Bus Line,US
129,518d4bfb498e9237f24fe163,47.624631,-122.320645,Bank,US
130,518c6e41498ecdedbab442d6,47.616798,-122.132208,Grocery Store,US
131,518c5044498e39d33c02ffce,47.605101,-122.339635,Clothing Store,US
132,518c4b24498e685384bc5025,47.614371,-122.319365,Diner,US
133,518c1e42498ed2244dafc6ea,47.615717,-122.196338,Office,US
134,518bdc3c498ebc33472ec9eb,47.608758,-122.296423,Home (private),US
135,518a9cce498eb64d2b7dce3d,47.599018,-122.331383,American Restaurant,US
136,518910d5498eb86ce782b9d3,47.628409,-122.383597,Boat or Ferry,US
137,51880652498eb86cdf737219,47.577983,-122.163879,Residential Building (Apartment / Condo),US
138,518804c8498e90115cd44d39,47.597454,-122.334347,Coffee Shop,US
139,5187c5e7498e6f957f386d5c,47.611535,-122.347522,Park,US
140,51872d8d498efc4007988106,47.590128,-122.336436,Campground,US
141,5186a3e1498e622f25d91a6e,47.44092,-122.30293,Moving Target,US
142,518680b7498e725296c218bd,47.65145,-122.355635,Food Truck,US
143,51866b7f498e2061fc9526e6,47.66625,-122.38285,Hotel,US
144,51854f86498e995adb4f906e,47.6049,-122.3408,Ferry,US
145,5184a8fd498e31ce0ac162a3,47.513489,-122.251358,Home (private),US
146,51842855498e0b2629026457,47.680107,-122.123973,Building,US
147,5183e02c498ee7b917059f45,47.615611,-122.201348,Dessert Shop,US
148,518306f6498e2f0dc10c7ddb,47.699902,-122.355274,Home (private),US
149,5182ebb1498e952d0d217694,47.536465,-122.289596,City,US
150,5182e7e1498e3a48c237de59,47.590867,-122.179053,Home (private),US
151,518291b6498e536a51522b5f,47.613472,-122.196373,Office,US
152,518126ee498e5f8701ce0e91,47.619246,-122.345853,Residential Building (Apartment / Condo),US
153,5180bfea498e72610be1a5a7,47.513489,-122.251358,Home (private),US
154,518044fee4b0baf22d500235,47.603001,-122.33007,Government Building,US
155,518005bee4b0ea9c76398136,47.610957,-122.331444,Campground,US
156,517ecb3fe4b08490e9e6b5b6,47.581471,-122.335109,Food Truck,US
157,517cbbd4e4b060f521f065e8,47.56512,-122.28186,Strip Club,US
158,517cb2a8498ef2a2fe6e0e86,47.552093,-122.38124,Residential Building (Apartment / Condo),US
159,517c94dee4b0f7d84c4424a3,47.616967,-122.327508,Dessert Shop,US
160,517c5cf9e4b0fb64933524b9,47.559544,-122.073335,Speakeasy,US
161,5179c859e4b0912abe83d2e9,47.47415,-122.216655,Coffee Shop,US
162,51799dc2e4b0ec77195e085c,47.66818,-122.384284,Sushi Restaurant,US
163,5178367de4b0d90b71adf708,47.615786,-122.198758,Cajun / Creole Restaurant,US
164,51779691e4b03341db6297ae,47.602236,-122.28523,Salon / Barbershop,US
165,5177367e498ee4f32da8b1c0,47.612938,-122.333195,General Travel,US
166,5176f9d2e4b02f19bb85d354,47.603454,-122.336491,Residential Building (Apartment / Condo),US
167,5176b0d0498ebb79e4c6ef71,47.612535,-122.334008,Accessories Store,US
168,5175df99e4b04f59f705616c,47.620681,-122.199813,Pet Store,US
169,5175ccda498ef654390d855c,47.462989,-122.16861,Home (private),US
170,517581fbe4b0cb9cca00732d,47.649715,-122.319992,Auditorium,US
171,51755180e4b01f6b164ed9b2,47.619741,-122.312907,Bakery,US
172,51749c45e4b0f71f798eee79,47.615433,-122.339942,Japanese Restaurant,US
173,5172fc05e4b09369040e3517,47.599361,-122.308722,Residential Building (Apartment / Condo),US
174,5171fcf5e4b04c6350575028,47.454297,-122.301601,Airport Terminal,US
175,51717721e4b01944818d4a79,47.437069,-122.28779,Hotel,US
176,517081b8e4b0142cf396fe2c,47.691128,-122.142443,Factory,US
177,51704dbee4b0e32c20925783,47.501582,-122.180187,Vietnamese Restaurant,US
178,516ffec4e4b0bc387f084ed6,47.618832,-122.312646,Caf,US
179,516de0f9498e8810702004c7,47.555647,-122.283908,Non-Profit,US
180,516cdb82498ed05de082bf2c,47.625984,-122.326271,Moving Target,US
181,516cc922e4b0aced38f177a1,47.656888,-122.314202,Chinese Restaurant,US
182,516c3194e4b0a9d82dd148d4,47.543278,-122.318532,Road,US
183,516c21ed498e8d42bb7993c2,47.602951,-122.33337,Coffee Shop,US
184,516b3387e4b0d63a215befca,47.663274,-122.313019,Dessert Shop,US
185,516b0044e4b075b2dc502ce8,47.499101,-122.220602,Medical Center,US
186,516af9c0e4b036a5cad42dd6,47.668874,-122.386575,Nail Salon,US
187,516a47c4498e010401eff9b0,47.673368,-122.120698,Caribbean Restaurant,US
188,516a1769e4b00710b771fb9c,47.624198,-122.3524,Performing Arts Venue,US
189,5169e351e4b0782ebe25c68a,47.609775,-122.33598,Hotel Bar,US
190,5169a12fe4b065db56abe2ed,47.597378,-122.330882,Event Space,US
191,5168be2f498e71bc942acb03,47.523474,-122.177213,Asian Restaurant,US
192,5167735de4b0a9cd8649b408,47.625049,-122.327664,Residential Building (Apartment / Condo),US
193,51635b83e4b095f6eed59b5a,47.64592,-122.326438,Office,US
194,516315b2e4b041b2c7a57250,47.611483,-122.346776,Sushi Restaurant,US
195,51619121e4b024efae6fd01e,47.615085,-122.318009,Bus Line,US
196,515f66f4e4b0a5e27d330623,47.621273,-122.33324,Gym,US
197,515dda66e4b069f93df27936,47.606287,-122.316878,Medical Center,US
198,515dc878e4b0c49b458d7357,47.497915,-122.205594,Bar,US
199,515c7663e0e2f3c21c3414c3,47.613902,-122.321219,Dumpling Restaurant,US
200,515c7233e4b057cee8da8699,47.727002,-122.300455,Factory,US
201,515c462970436c818deaf897,47.707134,-122.326648,New American Restaurant,US
202,515b7b5ce4b047dbb4f0f770,47.615872,-122.343418,Home (private),US
203,515b72d4e4b0ef0c58a9b2f1,47.631771,-122.375122,Tech Startup,US
204,515b6bd6e4b0057b6e4cdaa3,47.600508,-122.334292,Gift Shop,US
205,515b535e526244a28b74b8d7,47.650551,-122.351593,Pub,US
206,515a5395e4b0246d97781af5,47.591605,-122.332621,Mexican Restaurant,US
207,5159be60e4b0648154cc35c5,47.651534,-122.35023,Tech Startup,US
208,5158d264e4b028506d077c3e,47.616587,-122.306363,Home (private),US
209,51578a82e4b038a19935a80d,47.440969,-122.303118,Plane,US
210,515770a1e4b0285063916b6c,47.620549,-122.320684,Scenic Lookout,US
211,5155c7f5e4b07da49e41629f,47.519699,-122.311836,Factory,US
212,5155c6cbe4b081d392198bcb,47.710551,-122.216717,Home (private),US
213,5154e2a0e4b01b95fa4a70ea,47.601657,-122.334196,Office,US
214,5154af49e4b08f22c1e21986,47.611301,-122.332417,Convention Center,US
215,5154632cebca276121990c0f,47.497633,-122.205048,American Restaurant,US
216,51540ed3f31cdfc083d92ab0,47.67634,-122.205123,Convenience Store,US
217,5153636e5dd7dd52e274cb43,47.663824,-122.29845,Clothing Store,US
218,51510644e4b08900fb3c78f1,47.652592,-122.086689,Home (private),US
219,5150eec4e4b005a4673064bb,47.587845,-122.233413,Island,US
220,51508170e4b04b41228d6f7e,47.432663,-122.234039,Factory,US
221,5150549de4b0d91ea6d477e5,47.709439,-122.188378,Office,US
222,514e1f3fe4b020b3af54eb13,47.60807,-122.294441,Bakery,US
223,514ce0c1e4b0e7ec6aa3c445,47.6887,-122.345,Design Studio,US
224,514cab2be4b0b838d5edc440,47.508438,-122.354934,Food Truck,US
225,514c7dede4b0a0ed67473943,47.482609,-122.217396,Hardware Store,US
226,514bdb38e4b04176d71f31d3,47.579041,-122.410746,Restaurant,US
227,514b6d94e4b0809dcec970e6,47.711315,-122.158252,Other Great Outdoors,US
228,514b5144e4b0a89059f5e52f,47.563233,-122.371347,Home (private),US
229,514a81cbe4b02d81dafdfa04,47.60258,-122.334101,Convenience Store,US
230,514a31aeebcae4abdec05471,47.669621,-122.383704,American Restaurant,US
231,51495a19f31c774bc99140f5,47.691754,-122.404668,Lake,US
232,51490867e4b043a8d1033562,47.575402,-122.334343,Gastropub,US
233,51490274e4b0d5c278c88403,47.668048,-122.38511,Seafood Restaurant,US
234,514885cfe4b082ab1d4651d9,47.691299,-122.350816,Residential Building (Apartment / Condo),US
235,51487d82e4b058b47c06e3fb,47.467906,-122.21388,Road,US
236,51481b06e4b038d0603be306,47.589905,-122.333598,Bar,US
237,5147c505e4b05ac9a420705b,47.487102,-122.161337,Home (private),US
238,51472deae4b068969770ba0c,47.430251,-122.253652,Building,US
239,5146a8e4e4b0dba1bba899ef,47.612318,-122.319918,Home (private),US
240,5145c86de4b0b5c899b87405,47.624436,-122.35227,Athletic & Sport,US
241,51450fcce4b0df5d57c68991,47.611215,-122.342174,Boutique,US
242,5144c440e4b0ab7c8f99a59c,47.655731,-122.356125,Home (private),US
243,5143c4e2e4b0c4e4e80301fd,47.729455,-122.243448,Thai Restaurant,US
244,514363b3e4b04e44c0f5dc0e,47.678207,-122.145859,Factory,US
245,51434e05d86c9033f7d76fc7,47.613505,-122.196604,Office,US
246,51432963e4b0257129d7205d,47.529651,-122.305959,Building,US
247,51415ae3e4b054a20e525e07,47.439718,-122.346811,Home (private),US
248,5141334ce4b00f63c3fa2085,47.59951,-122.299869,Brewery,US
249,5140e12ce4b09364dd50fb5d,47.60744,-122.341009,Office,US
250,5140d457e4b03a4ad0446a66,47.607976,-122.33473,Office,US
251,513f4fa3e4b0c2e7257e80f6,47.422019,-122.23236,Factory,US
252,513e87c7e4b022102ac0f5bf,47.643155,-122.322345,Moving Target,US
253,513e7181e4b02ed34ed55e7d,47.61076,-122.332368,Gym,US
254,513e4ff8e4b0bb777d20247f,47.428147,-122.227064,Miscellaneous Shop,US
255,513e30e8e4b0a1cf87a182e7,47.506269,-122.155739,Sushi Restaurant,US
256,513e10bee4b08126493b7577,47.656938,-122.308631,College Library,US
257,513e0311e4b05d5c3d41ae93,47.522046,-122.375047,Garden,US
258,513d5bf1e4b0b36e10eca3ca,47.519182,-122.372169,Home (private),US
259,513d58c3e4b06a870b623188,47.61809,-122.303769,Residential Building (Apartment / Condo),US
260,513d2712e4b01b2f7afa472a,47.620023,-122.320771,Caf,US
261,513bf1a0e4b0d8fbf438d7d5,47.666695,-122.313098,Bar,US
262,513bb0cee4b00e24838821ad,47.612063,-122.330427,General Travel,US
263,513a82c9f2e74b4f3e85fc5a,47.599045,-122.332699,Butcher,US
264,513a553de4b00e247926a32f,47.541965,-122.305412,Coworking Space,US
265,513a5471e4b0bfae137df644,47.651304,-122.32135,Restaurant,US
266,513a44bce4b082d03c2c2fc8,47.446915,-122.26257,Miscellaneous Shop,US
267,51393cdae4b0544734977685,47.679399,-122.177901,Coffee Shop,US
268,5138e2cae4b05758611b713d,47.709305,-122.188064,Office,US
269,5138dff8e4b00126bdb69345,47.590366,-122.192673,Moving Target,US
270,5137d65fe4b02668288fe0e9,47.730556,-122.344313,Miscellaneous Shop,US
271,51374e7fe4b08fbb2bb16263,47.428433,-122.223453,Gas Station / Garage,US
272,5136b424e4b00cd5aa60a078,47.60884,-122.335283,Sandwich Place,US
273,51366977e4b09ee810650c47,47.4736,-122.228678,Factory,US
274,51363bd8e4b067f79e1e1b21,47.624823,-122.174702,School,US
275,5135464fe4b08b13bd7a524a,47.71146,-122.191418,Burger Joint,US
276,51352ca5e4b080cc119ae8f2,47.635176,-122.357183,Bookstore,US
277,513518967ab473d825ad2b3f,47.651831,-122.328612,Seafood Restaurant,US
278,5134f57ee4b0fb5193f0bcec,47.446947,-122.225365,Office,US
279,5134dd6ae4b0826892d583bf,47.616917,-122.344408,Coffee Shop,US
280,5134bcece4b01a0b664991e5,47.441428,-122.262192,Factory,US
281,51345382e4b02118423c4850,47.613354,-122.321777,EV Charging Station,US
282,51333c8ee4b0c9fcdb92eafb,47.665164,-122.369545,Gas Station / Garage,US
283,5132b732e4b018c1c0829caa,47.613344,-122.336787,Moving Target,US
284,5132b1d6e4b0ef4e14c44a68,47.594189,-122.333321,Food Truck,US
285,513296a5e4b0f82cf181a923,47.610868,-122.338063,Playground,US
286,51325583e4b0835c64fec080,47.562362,-122.292954,Soccer Field,US
287,51324775e4b0f82cee97d1af,47.704971,-122.355439,Neighborhood,US
288,5131cb48e4b0f82cea238301,47.605912,-122.320522,Residential Building (Apartment / Condo),US
289,51317646e4b0680a7c0e9dc4,47.611121,-122.334239,Lounge,US
290,513121328302950c208f90d1,47.614206,-122.319288,Diner,US
291,513114b8e4b0a08cc7df966c,47.660799,-122.370975,Miscellaneous Shop,US
292,5130fe65e4120e2b1ab130b1,47.608854,-122.340016,Cocktail Bar,US
293,51301af4e4b03f2989fc0a65,47.664531,-122.368106,Beer Garden,US
294,51301a18e4b0316000e2fab7,47.61042,-122.335762,Food Truck,US
295,512e914ae4b01a65c316064c,47.617245,-122.192253,Real Estate Office,US
296,512e79cae4b002e8a1494303,47.657998,-122.383588,Office,US
297,512e3d5de4b0d987eec9ae9b,47.462887,-122.252371,Office,US
298,512e34cfe4b04ac759dee042,47.452479,-122.250298,Recycling Facility,US
299,512d3746e4b05c0664023db3,47.611816,-122.198904,Real Estate Office,US
300,512d0bc1e4b01feb079d40a8,47.613461,-122.320752,Mexican Restaurant,US
301,512cfe56e4b04461e9abe92e,47.65705,-122.308618,University,US
302,512bdf5ee4b05907b3fe5d66,47.667068,-122.097141,Design Studio,US
303,512abcf1e4b0d9d00b9004bb,47.668852,-122.119886,Brewery,US
304,5127baabe4b004520dc7e400,47.661434,-122.319211,Office,US
305,512796f0e4b02757d2c9ab51,47.610982,-122.338407,Bus Station,US
306,5126ec1ee4b088ac5f10e0a6,47.609581,-122.141642,Greek Restaurant,US
307,51269b65e4b0410a76cbcb07,47.430159,-122.316168,Storage Facility,US
308,512695a0e4b031c9083c413c,47.445446,-122.224549,Laboratory,US
309,51268871e4b0d9dc3ae806cf,47.602881,-122.331077,Vietnamese Restaurant,US
310,5125e03ee4b0dd22e4ddb483,47.570946,-122.172795,Home (private),US
311,51240ac3e4b07a4d92a8f0d4,47.613338,-122.337914,Burger Joint,US
312,5123edb5e4b0d984000a120b,47.648526,-122.344922,Tech Startup,US
313,5123df20e4b0dc6a0cf9ca84,47.729556,-122.293035,Miscellaneous Shop,US
314,5123a2b2e4b0aad99b242ea3,47.617389,-122.19789,Factory,US
315,5122d797e4b0d6fccef9915a,47.615029,-122.31278,Cocktail Bar,US
316,51229aa7e4b09c46582f9cb9,47.61813,-122.357243,Rental Car Location,US
317,51228b86e4b07ee5ab25b820,47.614624,-122.333202,Sandwich Place,US
318,5122663ce4b0655fff834799,47.618499,-122.20029,Event Space,US
319,51226078e4b0d82e6d788757,47.619076,-122.2002,Event Space,US
320,5121d7b3e4b0293c82113623,47.44937,-122.301821,Plane,US
321,5121b0dee4b049e107281e53,47.680671,-122.3118,Home (private),US
322,51216225e4b08f84bcc7262c,47.703452,-122.378831,Home (private),US
323,5121546ee4b016d27988d616,47.442266,-122.301033,Moving Target,US
324,51205ed5e4b09e789627a462,47.616933,-122.19271,Art Gallery,US
325,511f042fe4b0d58347f8a12b,47.610126,-122.327667,Doctor's Office,US
326,511ec241e4b0d2f60cf70548,47.610017,-122.3426,Coffee Shop,US
327,511eb8ffe4b0957a1f914977,47.444643,-122.303617,Airport Terminal,US
328,511ea106e4b03a91c4d4bfe3,47.608396,-122.334766,Moving Target,US
329,511e94cbe4b0d10db74a97f1,47.622349,-122.335532,Food Truck,US
330,511d4861e4b05787c851a90e,47.584485,-122.333885,Theme Park Ride / Attraction,US
331,511d44cde4b0a1c1943772d1,47.623241,-122.181616,Food Truck,US
332,511d2f0db0ed4a4d357f263f,47.606655,-122.338257,American Restaurant,US
333,511bb93fe4b0c709340c2066,47.728428,-122.334461,Home (private),US
334,511ac7d6e4b0f69456fd8d22,47.613319,-122.180515,Building,US
335,511a992ee4b00262d0d47ccf,47.5737,-122.333844,Factory,US
336,5119b968e4b059beca1cc778,47.703501,-122.3505,Mexican Restaurant,US
337,511991b8e4b091f454b2bf4a,47.623055,-122.359126,Office,US
338,51182295e4b0631448bcc3d8,47.622436,-122.335305,Gym,US
339,5118075de4b03863cc593d12,47.48744,-122.218403,Residential Building (Apartment / Condo),US
340,5116d64ee4b0bae1a9b01879,47.620579,-122.321118,Mexican Restaurant,US
341,5115ad36e4b0d2e9f714392c,47.630065,-122.141554,Department Store,US
342,51156960e4b0817a5d6cb9f0,47.601894,-122.188408,Real Estate Office,US
343,51155703e4b0592c860158dc,47.701282,-122.178524,Real Estate Office,US
344,51147020e4b04c3d565e2514,47.441236,-122.300895,Airport Gate,US
345,51146556e4b0922f2d480fe1,47.543338,-122.364995,Home (private),US
346,51132c4e52624f96400957b2,47.675805,-122.375829,Taco Place,US
347,5112fa7de4b09f1fadfc0d8a,47.610942,-122.316465,Bar,US
348,51114f8ce4b07d0a246f2fde,47.675837,-122.121212,Gluten-free Restaurant,US
349,5110b2c7e4b00d021a7fec73,47.610334,-122.334137,Bar,US
350,510ecebfe4b077917569a2e1,47.455617,-122.227172,Hiking Trail,US
351,510e8e56e4b0ca91f75bbd03,47.605347,-122.311752,Athletic & Sport,US
352,510dda33e4b0898fb48f0c4f,47.619715,-122.196339,Tapas Restaurant,US
353,510d8f02e4b036b55b8ac522,47.523203,-122.321931,Neighborhood,US
354,510c7e8fe4b0355da0482aff,47.499305,-122.365821,Home (private),US
355,510c5991e4b01a7abbe37680,47.676229,-122.300877,Gas Station / Garage,US
356,510b7cf5e4b00192a76bafbe,47.663821,-122.377004,Brewery,US
357,510abd2ae4b052a428f95224,47.669442,-122.1231,Building,US
358,510a99c0e4b0c3201bb4fc1c,47.610898,-122.331659,Event Space,US
359,51099b34e4b08bab51f3b2f8,47.66217,-122.368539,Hardware Store,US
360,5109627e45b0d8885895c39a,47.655459,-122.34257,Spa / Massage,US
361,510834e6183f4521c6da9b1c,47.677864,-122.127435,Burger Joint,US
362,5106c7a2e4b01cf898f44bf7,47.608913,-122.340442,Seafood Restaurant,US
363,5105a6c0e4b06f1626e36889,47.665695,-122.113786,Performing Arts Venue,US
364,51059c30e4b0ed5091fc4236,47.591893,-122.332536,Baseball Stadium,US
365,51046acde4b09faebbe399e0,47.569016,-122.289308,Mall,US
366,5104693be4b0280b08af9562,47.711397,-122.180413,Gym,US
367,51040723e4b0c047e356c655,47.59014,-122.307007,Bus Station,US
368,51037d62e4b006fca4084e71,47.613905,-122.339973,Speakeasy,US
369,5102cda0e4b0269867485f14,47.593223,-122.33306,Convention Center,US
370,51020084e4b0fb39a60c00bf,47.617996,-122.325875,Malaysian Restaurant,US
371,5101b606e4b0c9cd2f64e825,47.611086,-122.331602,Convention Center,US
372,5100f2f2e4b0c9cd2ba3d55d,47.609192,-122.333788,Airport,US
373,50ff8b1de4b0a49395202a1e,47.44675,-122.189603,Residential Building (Apartment / Condo),US
374,50fec0f4f136562b3972befe,47.610677,-122.33551,Historic Site,US
375,50fddbf9e4b07b833be8f025,47.610496,-122.337399,Bar,US
376,50fb32a3e4b0382933cc9e4d,47.6444,-122.1384,Soccer Field,US
377,50fa125de4b038292b8da04f,47.446385,-122.303796,Mac & Cheese Joint,US
378,50f88cd6e4b0e18945f5cd54,47.635551,-122.357033,Spa / Massage,US
379,50f770aae4b076e63232b515,47.61352,-122.347417,Steakhouse,US
380,50f64a02e4b0a586d51c97a6,47.46381,-122.219734,Travel Lounge,US
381,50f6484de4b0775f2340f923,47.463908,-122.219728,Gym,US
382,50f60695e4b002d87ed78771,47.599167,-122.332894,French Restaurant,US
383,50f600fce4b0e10e0f558b5f,47.633777,-122.340529,Tech Startup,US
384,50f47b46e4b047fccb78334c,47.576013,-122.33386,Nightclub,US
385,50f46e80e4b09c9acc287fe7,47.711357,-122.18028,Gym / Fitness Center,US
386,50f45f33e4b0ef11217d9f79,47.611882,-122.348066,Building,US
387,50f3073be4b041967e0ad9c9,47.442479,-122.335295,Pet Store,US
388,50f1027ee4b04196702b9cb8,47.614093,-122.32123,Bar,US
389,50ef8114e4b05e933e9f408c,47.482804,-122.202142,Office,US
390,50ee91f4e4b0793e2b95fdc9,47.640033,-122.257196,Bridge,US
391,50edcefee4b0addb7a0e50ee,47.468314,-122.342679,Miscellaneous Shop,US
392,50ecddbce4b0385a50ee2acf,47.620828,-122.319771,Gym,US
393,50ecc54be4b0e7253aa82b2e,47.548482,-122.316283,Bar,US
394,50ec931a5d24ad73a5197ec8,47.461213,-122.293581,Rental Car Location,US
395,50ec72f3e4b0081deafb1e73,47.61174,-122.193568,Building,US
396,50eb6358e4b0826e1fc6c548,47.673708,-122.3175,Doctor's Office,US
397,50eb47c0e4b05f5402dd4d91,47.625807,-122.242196,Home (private),US
398,50ea1829e4b0d16a0da8ab29,47.617637,-122.348509,Residential Building (Apartment / Condo),US
399,50e8ba62e4b0b7b96b76edd4,47.487384,-122.176152,Grocery Store,US
400,50e8a4bfe4b07c15bb2b9259,47.579419,-122.408266,Residential Building (Apartment / Condo),US
401,50e7929a498ee1a0b850567b,47.564865,-122.386262,Gym,US
402,50e73c72e4b0e263436175a9,47.622599,-122.335195,Food Truck,US
403,50e71dffe4b08cc1f3a144ff,47.680686,-122.404683,Miscellaneous Shop,US
404,50e677a3e4b0889f33513562,47.656207,-122.36264,Coffee Shop,US
405,50e63518e4b0650b9e754df8,47.610798,-122.196442,Spa / Massage,US
406,50e62bf6e4b026ac78f9accd,47.539025,-122.166037,Plaza,US
407,50e5280de4b0725243b8dd0d,47.620465,-122.320803,Residential Building (Apartment / Condo),US
408,50e4ad33e4b0515dc97a16a8,47.619758,-122.36016,Deli / Bodega,US
409,50e49e4329a62706f3fb5421,47.629009,-122.331444,Pub,US
410,50e466bdb0ed2273ec512be3,47.601924,-122.331766,Office,US
411,50e3f896e4b0eb1f00455a47,47.543197,-122.15665,Home (private),US
412,50e3a235e4b092e9bdb8e4f8,47.44118,-122.300786,Plane,US
413,50e39229e4b070c044420c78,47.642162,-122.407037,Tech Startup,US
414,50e3631ae4b0eb1ffd5bfe25,47.620109,-122.15756,Gym,US
415,50e27a2ce4b0a2ae35dac26b,47.618386,-122.327504,Speakeasy,US
416,50e2255ce4b0c6dcd1217130,47.441298,-122.30112,Plane,US
417,50e1f852e4b0869e696aa9db,47.611398,-122.344164,Office,US
418,50e0c9d1e4b0eb1fed0fd6d4,47.604205,-122.398939,Boat or Ferry,US
419,50e0a1e972da12a200b881d6,47.612615,-122.319267,Theater,US
420,50df55f3e4b0b781a2b95ef7,47.608048,-122.33347,Home (private),US
421,50df54e6e4b070c02891fe86,47.581615,-122.386452,Bagel Shop,US
422,50de364ce4b0c48b525583f8,47.603605,-122.336145,Residential Building (Apartment / Condo),US
423,50dcacdde4b057fed1be569c,47.675602,-122.127205,Sandwich Place,US
424,50dc90e6e4b0495c547856f8,47.627423,-122.142064,Event Space,US
425,50dbafd4e4b0c1f3fc7c17c2,47.712847,-122.299467,Automotive Shop,US
426,50db496ae4b0f0bf6a69f152,47.457738,-122.341505,Doctor's Office,US
427,50d5468de4b0487c2e30efa7,47.692466,-122.355373,Sports Bar,US
428,50d34be3e4b034749070819b,47.577552,-122.329536,Coffee Shop,US
429,50d25c30e4b057df633d024b,47.6617,-122.342196,Doctor's Office,US
430,50d209ace4b0807ea7ea8afe,47.62084,-122.320853,Bagel Shop,US
431,50d1e7e5e4b0935b0ae86373,47.606188,-122.309738,Bus Line,US
432,50d1c687e4b0399074e69752,47.440619,-122.304176,Plane,US
433,50d13022e4b0620405804b98,47.650329,-122.349367,Italian Restaurant,US
434,50d0c62d45b0ee9e49efd1fa,47.621756,-122.352076,General Entertainment,US
435,50cf9312e4b0fb933d4e69a0,47.619002,-122.191581,Art Gallery,US
436,50ce5e0be4b03ef0864ab759,47.616722,-122.307488,Yoga Studio,US
437,50ce3c46e4b0ce62b6772097,47.665697,-122.397209,Harbor / Marina,US
438,50ce2fcfe4b03ef085035566,47.618428,-122.303404,Residential Building (Apartment / Condo),US
439,50ce1b40e4b0ce62b5818855,47.683087,-122.399192,Other Great Outdoors,US
440,50cd4bfce4b00d24a76efe51,47.661365,-122.323416,Men's Store,US
441,50cd0ea3e4b05a8a1c86d8f1,47.624416,-122.316307,Home (private),US
442,50ccfd41e4b0956d3514bf05,47.615453,-122.324929,Gym,US
443,50ccf4d9498ee21ad41ba854,47.545931,-122.059538,Coffee Shop,US
444,50ccce4be4b026936a737225,47.4422,-122.3001,Airport,US
445,50cc88a3e4b044ef6755f117,47.611935,-122.18024,Road,US
446,50cbfa40e4b0c490bb93f2a1,47.606543,-122.339254,Art Gallery,US
447,50cba47ee4b0212e7f416756,47.610876,-122.331698,Convention Center,US
448,50caa3a6e4b0881a66a2c41a,47.609173,-122.332665,Theme Park,US
449,50c9a840e4b0660c7de70f48,47.619647,-122.343765,City,US
450,50c9623a498ef0e11e91924a,47.577302,-122.169068,Japanese Restaurant,US
451,50c8edfde4b04b69c9e507f1,47.459104,-122.257382,Women's Store,US
452,50c8b119e4b0effe7782aaad,47.622685,-122.337054,Event Space,US
453,50c790ace4b0cbcf07c97b42,47.490446,-122.284972,Food Truck,US
454,50c69a71e4b05f89cd22f58f,47.612959,-122.289512,Neighborhood,US
455,50c6603ce4b0d0a367d1fb9e,47.616501,-122.32756,Other Great Outdoors,US
456,50c620f2011c4ee369826709,47.575527,-122.328966,Coffee Shop,US
457,50c4f18ce4b032fa8334fcf9,47.682621,-122.341144,Neighborhood,US
458,50c4067ae4b0794e9a33ca75,47.618225,-122.325975,Bar,US
459,50c3cdd4e4b09610f2f9b585,47.713366,-122.163684,Automotive Shop,US
460,50c36d59e4b0300631a4a7d3,47.440126,-122.298453,Coffee Shop,US
461,50c35712e4b0c5b6f3cf32b3,47.615872,-122.343418,Home (private),US
462,50c2b081e4b0fb7142dfcfa1,47.616641,-122.327549,Bar,US
463,50c2aafee4b069afe299f16d,47.650355,-122.349395,Office,US
464,50c22d58e4b0abeb9ed79003,47.61068,-122.17962,Office,US
465,50c20527e4b0e27ba46b0343,47.606209,-122.332071,Residential Building (Apartment / Condo),US
466,50c15b35e4b05f96d68b034c,47.613841,-122.345802,Lounge,US
467,50c1485ce4b08e706829809a,47.439169,-122.300869,Plane,US
468,50bf9b21582ff054194651e8,47.624504,-122.321069,Bar,US
469,50bf8a36498e6d303520edea,47.716976,-122.186405,General Travel,US
470,50be9dabe4b0c38f14ef84d6,47.426418,-122.228654,Bus Line,US
471,50bd7253e4b08488f96c2136,47.698025,-122.326962,Residential Building (Apartment / Condo),US
472,50bd5c0fe4b0b149e8173957,47.628277,-122.341841,Office,US
473,50bc208329a6ce84045bb859,47.609838,-122.142842,Japanese Restaurant,US
474,50bb9fb9e4b0fa375cfb2f85,47.679106,-122.324141,Caf,US
475,50bb8d4ee4b0c783593e3961,47.56474,-122.386606,Caf,US
476,50baa1bee4b0cfba2caee862,47.674796,-122.171431,Spiritual Center,US
477,50ba7319e4b063c74918d6d0,47.680114,-122.130959,Garden Center,US
478,50ba5c02e4b0fb1ae396522a,47.633907,-122.139085,Yoga Studio,US
479,50b95633e4b097fc6c924b14,47.439534,-122.301068,Scenic Lookout,US
480,50b8fb3fe4b0073faac79738,47.656452,-122.319032,Home (private),US
481,50b8e1cbe4b0cbe64140674c,47.464,-122.288,Bus Station,US
482,50b80017ebca5eaa438687e6,47.623492,-122.336798,Indian Restaurant,US
483,50b6c4add63ee418ecdc50d6,47.607639,-122.328193,Salon / Barbershop,US
484,50b67c1ee4b0eaaa197c452f,47.612802,-122.331239,Gastropub,US
485,50b584f7e4b09f5c897c140d,47.664468,-122.314254,Asian Restaurant,US
486,50b52728e4b043d09a2f54f5,47.61408,-122.320412,Food Truck,US
487,50b4483ae4b0a5d7187722ba,47.598458,-122.33163,Pub,US
488,50b38ae419a9c8211de49432,47.597222,-122.328236,Tech Startup,US
489,50b30c0fe4b0428a11468f5e,47.61904,-122.193144,Residential Building (Apartment / Condo),US
490,50b2d025e4b0e2dfe820bef2,47.687683,-122.374046,Garden,US
491,50b28cf5e4b0d67c99d9920e,47.679145,-122.324224,Medical Center,US
492,50b18a39e4b0cf8d1d513675,47.656452,-122.319032,Home (private),US
493,50b16df7e4b07d280edd1b99,47.700892,-122.302394,Liquor Store,US
494,50b10fa7e4b0b7c94b3028c1,47.613544,-122.338917,Athletic & Sport,US
495,50b10df9e4b004e6d2eece0c,47.447901,-122.267322,Road,US
496,50b0f6f2e4b056d2ab92f115,47.497503,-122.20463,Donut Shop,US
497,50b0bb06d86c4ef2950df5cd,47.622841,-122.325275,Residential Building (Apartment / Condo),US
498,50b0b9b8d86c4ef2950dd8ef,47.623,-122.325017,Residential Building (Apartment / Condo),US
499,50b02e34e4b042e780f340f3,47.628685,-122.302749,Home (private),US
500,50b02733e4b045752b444a6d,47.614221,-122.340907,Multiplex,US
501,50ae48cfe4b0be4dddcfb5c4,47.689968,-122.397768,Athletic & Sport,US
502,50ad8b23e4b006275290f1b8,47.607034,-122.336965,Tech Startup,US
503,50ad47dae4b0b6ca68db3ab5,47.692067,-122.345303,Home (private),US
504,50acf2aae4b0677d4eb8171a,47.44366,-122.303445,Airport Terminal,US
505,50abdb07e4b01711722ef1f6,47.608079,-122.337791,Food Truck,US
506,50aae754e4b09e6523c44ddb,47.572326,-122.328098,Bus Line,US
507,50aae085e4b0102cd381f69f,47.621685,-122.342619,Building,US
508,50aab225e4b00936cf96ea64,47.663927,-122.29895,Juice Bar,US
509,50aaa38ce4b00936cf8e8d2c,47.611325,-122.334426,Chinese Restaurant,US
510,50aa2f3ce4b02938bfadd25e,47.418943,-122.248218,Office,US
511,50a964dee4b0e4f42e4ffaf8,47.614198,-122.31844,Bar,US
512,50a68d73e4b0d40bc29d2ef3,47.659057,-122.308168,College Academic Building,US
513,50a684cde4b0bc813573b9b2,47.654967,-122.195688,Elementary School,US
514,50a682eae4b04e0a4b5d2015,47.683394,-122.376766,Bus Station,US
515,50a5b8cbe4b09f38b9e5cc76,47.694923,-122.397443,Historic Site,US
516,50a58fbee4b0e5234c124cac,47.448238,-122.260324,Department Store,US
517,50a45f56e4b0d190c59d5072,47.614358,-122.32785,Middle Eastern Restaurant,US
518,50a3f706e4b0850330cc95a4,47.608923,-122.33781,Food Truck,US
519,50a2bd98e4b070229a45269d,47.61468,-122.344464,Ramen /  Noodle House,US
520,50a1cfbfe4b001193430db9d,47.621052,-122.324873,Residential Building (Apartment / Condo),US
521,50a1b8a1e4b0e0409f41cba6,47.556583,-122.285918,Residential Building (Apartment / Condo),US
522,50a1755ae4b0bbf7780f707a,47.619232,-122.350983,General Entertainment,US
523,50a1634a498efdffc86c203d,47.650993,-122.134241,Office,US
524,50a104cfe4b0d459dd94b959,47.442867,-122.307457,Plane,US
525,50a086b9e4b0ab175498cc3f,47.518892,-122.296443,Museum,US
526,50a04dd3e4b0383a0f160b9d,47.621625,-122.316979,Speakeasy,US
527,50a03482e4b0bbf7775e92f6,47.605645,-122.339317,Monument / Landmark,US
528,50a01791e4b0388825fb1b35,47.574978,-122.326775,Hardware Store,US
529,50a000d4e4b0a0263fbd4ff2,47.551316,-122.327818,Public Art,US
530,509f6a8fe4b0191a31212bdb,47.669922,-122.265317,Neighborhood,US
531,509db37ce4b064259260db57,47.560404,-122.310865,Home (private),US
532,509d482ee4b0735b7dd995e0,47.6558,-122.31033,General Entertainment,US
533,509c998ee4b07eb4d7e2bde7,47.623834,-122.31263,Bar,US
534,509c3890e4b0872dbc0660a8,47.620459,-122.200674,Convenience Store,US
535,509c326ae4b0642591904877,47.610052,-122.343042,Building,US
536,509c1b8be4b0b72b97c0498b,47.612844,-122.199782,Korean Restaurant,US
537,509c0c9ce4b019141e56143d,47.606364,-122.337413,Pizza Place,US
538,509ad2ffe4b064b01b6cf354,47.612074,-122.332037,Meeting Room,US
539,509ac938e4b0aed804141fb8,47.649402,-122.311779,Beach,US
540,5099f374e4b02cd4a08034d9,47.419871,-122.340485,Home (private),US
541,5099f2b2e4b0ef44e514aa46,47.614043,-122.319421,Gay Bar,US
542,5099eac3e4b05239c7db2a6d,47.601919,-122.340573,Boat or Ferry,US
543,5099dac8e4b03a271c25f990,47.614263,-122.316737,Indian Restaurant,US
544,5099cf6ae4b057245dbca135,47.610797,-122.331931,Nightclub,US
545,5099cad2e4b078b1ccb8e7ec,47.611096,-122.33158,Convention Center,US
546,50999b3ae4b07459998344a9,47.675607,-122.325515,Factory,US
547,5099672d64a45181c2b74a6a,47.66335,-122.29929,Tea Room,US
548,5099204ee4b071356dbe7a0e,47.613485,-122.212161,Voting Booth,US
549,50984984e4b0d888989e152b,47.730069,-122.344886,Asian Restaurant,US
550,50982f68e4b02645e1257904,47.609028,-122.33831,Food Truck,US
551,50981f7ae4b053f9fd4dd79b,47.540302,-122.322534,Sandwich Place,US
552,5097ee58e4b07ae1b8ec30db,47.607388,-122.333861,Event Space,US
553,5097e509498e4ddf69c1927d,47.611147,-122.331704,Convention Center,US
554,5096c5bee4b0cb50cd06e788,47.624435,-122.351695,Art Gallery,US
555,5095e439e4b07ae1b7bbd684,47.623745,-122.331701,Residential Building (Apartment / Condo),US
556,5095c1aee4b0ad3a95bc3641,47.649456,-122.349437,Ice Cream Shop,US
557,50955c01e4b05f8bb5cd2b90,47.522736,-122.3769,Deli / Bodega,US
558,50940ad3e4b0a7ac705567ee,47.53283,-122.363796,Strip Club,US
559,509361b6e4b0ad0d947ed270,47.675903,-122.318735,Vietnamese Restaurant,US
560,50934f25e4b0625eb68fb459,47.626013,-122.348532,Residential Building (Apartment / Condo),US
561,50932df1e4b0e52fa2732180,47.640217,-122.399246,Seafood Restaurant,US
562,5092f69ce4b0ad0d944d6018,47.638054,-122.20094,Non-Profit,US
563,5092d26fe4b083652fad1828,47.625561,-122.292784,Pizza Place,US
564,5092cbb0e4b000bd1ee408be,47.65392,-122.375951,Bus Station,US
565,5092ba29e4b021eb0a0f4369,47.663824,-122.29248,Yoga Studio,US
566,5092ba21e4b07ba8b10dd02f,47.464095,-122.288178,Light Rail,US
567,5092af28e4b07db78ba069a8,47.60059,-122.330967,Non-Profit,US
568,50928d7ce4b0b512e26d916b,47.444657,-122.303573,Caf,US
569,509200d9e4b0f08bb9f2d88f,47.526185,-122.170372,Housing Development,US
570,5091f761e4b067004bd0be9b,47.631521,-122.363328,Home (private),US
571,5091f2d1e4b0d4c06bf8fc8e,47.692785,-122.30818,Home (private),US
572,5091e1e7e4b0ef4a52bf74f3,47.611772,-122.341769,Cocktail Bar,US
573,50918573e4b0e0de79922163,47.620145,-122.329864,Home (private),US
574,50918231e4b0208a6218558f,47.631097,-122.132905,Drugstore / Pharmacy,US
575,5090945fe4b00a94787adc7c,47.660857,-122.313017,Asian Restaurant,US
576,509061e0e4b031cde1cd394a,47.624112,-122.35666,Bus Station,US
577,50901c73498e8c94e31ae21a,47.434536,-122.25674,Factory,US
578,508ff29c498e5bcb645b836b,47.641841,-122.129402,Event Space,US
579,508f644fe4b021bb21150181,47.634554,-122.13141,Hotel,US
580,508d9f05e4b0d26217f61c47,47.691208,-122.290788,Spa / Massage,US
581,508d5971e4b0c56e761e6b40,47.516273,-122.355314,Diner,US
582,508c8babe4b086e59a3fc2c3,47.612838,-122.34155,Bus Line,US
583,508c5ec9e4b01167eb35dcc4,47.61184,-122.33708,Hobby Shop,US
584,508c0a88e4b055a7580ae386,47.550381,-122.260033,Other Great Outdoors,US
585,508b5713e4b03c5c39b02ae4,47.593409,-122.332247,Other Nightlife,US
586,508b4e1ee4b06da581e1ecb5,47.668712,-122.382906,Bar,US
587,508b4919e4b0167a9d19e5ac,47.649605,-122.34246,New American Restaurant,US
588,508b35fce4b0b2a615a75075,47.680937,-122.125924,Cheese Shop,US
589,508b24fde4b0953c4072d8ac,47.642301,-122.129507,Event Space,US
590,508a9e1ee4b02ba9b0e3667a,47.640264,-122.137812,Office,US
591,508a2efce4b0d26215f094d5,47.658614,-122.31344,Nightclub,US
592,5089ffaee4b0a1c8465d9314,47.612756,-122.333773,Meeting Room,US
593,5089e277e4b0c56e7427f7e6,47.62256,-122.336911,College Academic Building,US
594,5089b180e4b0101d992dd367,47.725883,-122.346774,Tanning Salon,US
595,50898956e4b0aa994cf3cb2d,47.61187,-122.335053,American Restaurant,US
596,5088bf47e4b0b15cd5dd5a0c,47.618257,-122.32629,Residential Building (Apartment / Condo),US
597,50876d15e4b096443c1cdb73,47.663442,-122.298911,Pizza Place,US
598,50874214e4b01190695ea2ed,47.649708,-122.342502,Korean Restaurant,US
599,5087350be4b06cc8e82328f0,47.62007,-122.157317,Residential Building (Apartment / Condo),US
600,5086f414e4b053682d610478,47.423251,-122.316701,Elementary School,US
601,5086bafbe4b0bc6a7b728d00,47.613892,-122.331261,Event Space,US
602,5086b3b8e4b036aadc90ad8a,47.604731,-122.335495,Convention Center,US
603,5085ac0fe4b0a447500b1803,47.605416,-122.333471,Japanese Restaurant,US
604,508448cee4b0d2d664cbc781,47.614612,-122.331259,Moving Target,US
605,50836f08e4b052212ebf5df4,47.611588,-122.321305,Veterinarian,US
606,5083593de4b0e99d0bf0d68b,47.576607,-122.298772,Food Truck,US
607,50832782e4b0a0ddb34d1f04,47.667206,-122.146621,Athletic & Sport,US
608,50831d44e4b0361f66c3c5eb,47.550209,-122.317276,Brewery,US
609,5082e442e4b03eedbe52b36f,47.626349,-122.339398,Sports Bar,US
610,5081c6dae4b06d3819e7dc83,47.661451,-122.341531,Non-Profit,US
611,5080b488e4b0a7491b9cee16,47.684231,-122.335337,Home (private),US
612,5080585de4b08785e77a46d3,47.6208,-122.320193,Residential Building (Apartment / Condo),US
613,5080228ce4b0e2e84a549968,47.601351,-122.188025,Road,US
614,507f7002e4b0d17b709ace3e,47.760156,-122.252397,Athletic & Sport,US
615,507f5739e4b06a5eebdb2d50,47.496378,-122.205728,Furniture / Home Store,US
616,507f4ea8e4b03ec9dbaea217,47.688509,-122.32176,Home (private),US
617,507f4b00e4b0f283de140983,47.666794,-122.347332,Road,US
618,507f309de4b0274885322a02,47.507068,-122.348001,Automotive Shop,US
619,507e0eb5e4b04cfa38cd1076,47.649511,-122.364319,College Academic Building,US
620,507dc35be4b0163755a5711f,47.608314,-122.341041,Gift Shop,US
621,507d9a1de4b0173580152bdf,47.741705,-122.340754,College Administrative Building,US
622,507d7adfe4b0d6bd808a2e4d,47.606976,-122.333042,Office,US
623,507ca12de4b08f55af898291,47.690807,-122.352773,Caf,US
624,507ca106e4b09a4c6260826f,47.582113,-122.386659,American Restaurant,US
625,507c50a5f1bae4f4c27a50c1,47.593932,-122.331533,Rental Car Location,US
626,507b9e6ce4b04688656a0e7c,47.494928,-122.171217,Home (private),US
627,507b3b01e4b0dad823569c34,47.675996,-122.36089,Neighborhood,US
628,507afd80e4b027cede7ea130,47.678883,-122.376953,Bus Line,US
629,507a3368e4b05ac93d7f7895,47.690216,-122.355076,Sports Bar,US
630,5079e55ee4b0112fc3bf6da7,47.678949,-122.325526,Nail Salon,US
631,5079c150fe70782127ae4b46,47.619442,-122.323558,General Entertainment,US
632,5078e8c5e4b0e1f137cc711c,47.600827,-122.333793,Thrift / Vintage Store,US
633,5078d385e4b07474049ca329,47.660009,-122.342558,Home (private),US
634,5078cdcbe4b0e1f137c04775,47.60952,-122.141501,Wings Joint,US
635,507890b3e4b0112fc2f8144a,47.623973,-122.334096,Building,US
636,5078694ce4b0772055ee6872,47.613352,-122.329419,Bus Line,US
637,507864afe4b0eb8b830bdbfc,47.584105,-122.150095,College Library,US
638,5078615ce4b0a4757d47e6e9,47.622157,-122.333989,Food Truck,US
639,507856b4e4b08350eb871035,47.474798,-122.3322,Caf,US
640,50783c5ee4b06fd3a90ce9ce,47.603049,-122.330378,Bus Station,US
641,507780c0e4b0dad8212e43a0,47.662124,-122.345081,Voting Booth,US
642,50762c51e4b065d50c34ed18,47.600657,-122.331206,Coworking Space,US
643,5076006d498e939b2fa988cc,47.535375,-122.294547,Neighborhood,US
644,5075a6d9498eefbc1554b8eb,47.657336,-122.206577,Doctor's Office,US
645,5074f2bce4b0bebb68638abf,47.617056,-122.346593,Thai Restaurant,US
646,5074d3dfe4b0040831fcabe7,47.624689,-122.356024,Thai Restaurant,US
647,5074d199e4b0eb2846a53527,47.616694,-122.345302,Food & Drink Shop,US
648,5074ad8a5262942a6abbce8d,47.603081,-122.333558,Hotel,US
649,50748861e4b013b9512cca95,47.641173,-122.136284,Building,US
650,50746e43e4b09794dacb9ccd,47.563901,-122.307657,American Restaurant,US
651,5074195ae4b0956351499b2d,47.615472,-122.201226,Gym,US
652,507344f1e4b04f015324a712,47.469133,-122.340292,Medical Center,US
653,50732ec8e4b0956350e240b8,47.709036,-122.184703,Sandwich Place,US
654,5071cc8ae4b07b49cbc816ae,47.668845,-122.383615,Coworking Space,US
655,5071c70ee4b0a1f88685819b,47.593995,-122.333643,Office,US
656,5070ed47e4b0c34b5046cfc2,47.576411,-122.309853,Pub,US
657,5070c0bce4b01a3599201879,47.6166,-122.201565,General Entertainment,US
658,50708cc2e4b0b56dea241169,47.651577,-122.351234,Sculpture Garden,US
659,506fa649e4b0f504a0562250,47.582327,-122.339515,Concert Hall,US
660,506f892de4b018a976de27ce,47.615315,-122.325328,Coffee Shop,US
661,506f73cee4b0c37bba469993,47.712022,-122.351664,Home (private),US
662,506f5aabe4b0a09cd4d67db5,47.481944,-122.234953,High School,US
663,506ef1c3e4b0eca4bc19d1e1,47.605287,-122.311722,Dog Run,US
664,506ef19ee4b05bc762d6409a,47.610114,-122.337121,Moving Target,US
665,506e1cb7e4b07fcb1ef21add,47.607848,-122.33094,Restaurant,US
666,506ddbc4e4b0d9d5cc73304c,47.649551,-122.204291,Neighborhood,US
667,506d0468e4b0b73550762260,47.609615,-122.141553,Dessert Shop,US
668,506c6462e4b04f733d7ad758,47.623062,-122.356664,Bus Line,US
669,506b440be4b05a0b8f0d0dce,47.459298,-122.257724,Burrito Place,US
670,506b42dee4b0ccd214eaa656,47.663017,-122.298439,Vegetarian / Vegan Restaurant,US
671,506b3b03011c5eb372056214,47.59644,-122.336884,Food Truck,US
672,506b0db3e4b034070c9b3dba,47.664842,-122.374208,Non-Profit,US
673,506aabb1183fb8632073d31d,47.661189,-122.334437,Japanese Restaurant,US
674,506a3a30e4b039256ebf3224,47.728177,-122.307732,Beer Garden,US
675,506a31e9e4b09c252f518e11,47.640548,-122.3424,Moving Target,US
676,506a314ae4b070cad757856f,47.686256,-122.314397,Road,US
677,5068d9ebe4b0846a5b67aff2,47.708545,-122.179156,Gym,US
678,50679f5ae4b0890847c3d6a2,47.622078,-122.312831,Southern / Soul Food Restaurant,US
679,50679d32e4b087b187dfa2d0,47.614977,-122.345196,Bus Line,US
680,50679a14e4b0890847c12a3f,47.618088,-122.341745,Liquor Store,US
681,50668012e4b02d0d1727277e,47.668753,-122.323948,Nightclub,US
682,5065d934e4b0c6fb8330d6c8,47.57934,-122.329159,Automotive Shop,US
683,5064c506e4b06062642548ae,47.62122,-122.350827,Arcade,US
684,50644515e4b0366ff57c9b22,47.443541,-122.3024,General Travel,US
685,5063a45ee4b0b4fe1fdaef2b,47.589327,-122.380587,American Restaurant,US
686,5063a3a7e4b0675ed5f1885e,47.523339,-122.177307,Park,US
687,50636287e4b0d41cab3cb593,47.660166,-122.3134,Asian Restaurant,US
688,50623fc764a4940f7e589a3f,47.673436,-122.129431,Hotel,US
689,50611a23e4b06cf1a1f5ebea,47.595651,-122.331782,Event Space,US
690,5060bdc0e4b095191be8d826,47.669825,-122.382288,Martial Arts Dojo,US
691,5060a709e4b02adef1871e43,47.491917,-122.20166,Snack Place,US
692,50605ce53d7c47f05ba41594,47.612736,-122.335269,Lingerie Store,US
693,505fffa4e4b01a0fba6554f9,47.528309,-122.360412,Bus Line,US
694,505f4cbee4b02cd2a32ce93b,47.519154,-122.298772,Historic Site,US
695,505eb5f6e4b05a1bf91ec762,47.583668,-122.132151,Home (private),US
696,505e3030e4b071a17fbdcced,47.674434,-122.126478,Salon / Barbershop,US
697,505d624ee4b012e7c8c7896f,47.614566,-122.321206,Nightclub,US
698,505d321ee4b05434c0cfdbbd,47.616529,-122.201605,Indian Restaurant,US
699,505ccf1ee4b09d97752332bf,47.436899,-122.328645,High School,US
700,505cb5b8e4b0236a270a0ddd,47.63177,-122.297271,Garden,US
701,505b9483e4b07c8ee420c66f,47.454856,-122.253143,Liquor Store,US
702,505b6c98b0ed9130e7ace365,47.449357,-122.262747,Liquor Store,US
703,505b2228e4b073c2ab41b882,47.596666,-122.300037,Home (private),US
704,505a28a1e4b0b1f2789ab6f9,47.438254,-122.30069,Plane,US
705,50591330e4b03a52e9780a13,47.613563,-122.328612,Bar,US
706,5058fbe7e4b0616dc6591e5b,47.71171,-122.18071,Miscellaneous Shop,US
707,5058a8fbe4b00293c41db343,47.682985,-122.376726,Bus Station,US
708,5057bc92e4b0e26b4477a873,47.612453,-122.335304,Gift Shop,US
709,5057ad52e4b0bc64c88555e1,47.441489,-122.222909,Sandwich Place,US
710,5057438ee4b01f3aa6c71575,47.657739,-122.306862,College Arts Building,US
711,5054fef5e4b02f6114884d83,47.644302,-122.126999,Event Space,US
712,5054ce21e4b0c99407d76c13,47.572801,-122.171987,Department Store,US
713,5054bd08e4b0de8bee250588,47.62029,-122.341268,Food Truck,US
714,50538ae7e4b0b914249a14ef,47.674134,-122.209364,Boat or Ferry,US
715,50528419e4b0150f2d528bb4,47.752651,-122.212836,Gastropub,US
716,505282bce4b0588850a5c625,47.704101,-122.325468,Department Store,US
717,50527761e4b0d070fb442406,47.552788,-122.320625,Miscellaneous Shop,US
718,50514114e4b0cccd4ec98349,47.615967,-122.342783,Event Space,US
719,5050c269e4b020e9ae019bf2,47.605371,-122.330808,Coffee Shop,US
720,504fe118e4b06999c6955d93,47.713293,-122.157414,Gym,US
721,504eac6de4b0ab052ff64777,47.62274,-122.332764,Caribbean Restaurant,US
722,504e6ee1e4b0d66162627cbf,47.741986,-122.187394,General Travel,US
723,504e66f4e4b0c42ad197a39e,47.618542,-122.344992,Salon / Barbershop,US
724,504e3c17e4b043e9eece5ddc,47.610017,-122.323472,Sandwich Place,US
725,504d0974e4b0f7c8cf66cb47,47.681399,-122.123219,Pizza Place,US
726,504c6390e4b037e085d8efe9,47.700625,-122.318142,Home (private),US
727,504b8d90e4b08a5d467d2dbc,47.668344,-122.363128,Coffee Shop,US
728,504b8b51e4b0838e3065d860,47.663367,-122.375275,Yoga Studio,US
729,504b77e7e4b0ef19b0b2e495,47.467372,-122.363061,Home (private),US
730,504ab800e4b051cdfa3eefd1,47.623383,-122.320975,Frozen Yogurt,US
731,504aabcee4b006c435763fa9,47.652889,-122.356394,Design Studio,US
732,504a6901e4b05828d08cf611,47.443231,-122.268229,Road,US
733,504a4e17e4b09a4430f17071,47.660724,-122.305463,Home (private),US
734,504a4673e4b086a8f9787221,47.651868,-122.336311,Office,US
735,504a3cede4b084386a5158a1,47.572489,-122.307258,Home (private),US
736,504a3c24e4b0c4f4a351c6cc,47.617838,-122.344133,College Technology Building,US
737,504916bbe4b0a18a7f51c2d0,47.433093,-122.223886,Factory,US
738,504816fce4b04d063ddc885d,47.604492,-122.309975,Home (private),US
739,504809c5e4b058c78c117577,47.650685,-122.35163,Wine Bar,US
740,5047ea60e4b08065924edc67,47.574083,-122.171168,Mall,US
741,5047b3fae4b04db60101f374,47.624016,-122.336793,Parking,US
742,50478c87e4b00168ea9b0426,47.623911,-122.336454,Donut Shop,US
743,5047696fe4b0497c33ffaf29,47.605618,-122.324332,Sandwich Place,US
744,50465689e4b03314a3ee42c3,47.583543,-122.129491,Coworking Space,US
745,5046342de4b03093e9679194,47.655948,-122.313585,Coffee Shop,US
746,50463157e4b00cac6f7927db,47.655969,-122.313373,Grocery Store,US
747,5046229ee4b0d8c7e0a9c89e,47.613563,-122.312916,Middle School,US
748,50450defe4b0b475f5d36972,47.604492,-122.309975,Home (private),US
749,5044dc45e4b068ce7e573542,47.694875,-122.40599,Home (private),US
750,5043f14ee4b07ecdeb242e3f,47.621185,-122.350784,Vegetarian / Vegan Restaurant,US
751,5043c385e4b03be3a761106c,47.610995,-122.334078,Meeting Room,US
752,5043c322e4b003e2b43009d7,47.621508,-122.350879,Fast Food Restaurant,US
753,504388cde4b08d9f59a807dd,47.718137,-122.209493,Church,US
754,5042b11ae4b0152f5839723b,47.594468,-122.333265,Art Gallery,US
755,50416306e4b08d5b61dc3c45,47.664257,-122.382484,Office,US
756,50414bf2e4b01446aaae24af,47.600224,-122.323525,Home (private),US
757,50413fb1e4b0c996b29675da,47.674148,-122.334983,Lake,US
758,504026e6e4b09c6ce3d16a65,47.624416,-122.316307,Home (private),US
759,50401d86e4b0dd909af8ea71,47.618307,-122.354832,Brazilian Restaurant,US
760,5040003ee4b06be18f3f387c,47.474503,-122.217514,Nail Salon,US
761,503fd8f0e4b0591b21f075f2,47.659064,-122.31294,Middle Eastern Restaurant,US
762,503fa401e4b0f8feec08e3df,47.611754,-122.332389,Arcade,US
763,503eb9b5e4b0fc08dcf39959,47.466841,-122.341494,Sandwich Place,US
764,503eb5d819a9b4da2ec0f9ae,47.615132,-122.339866,Residential Building (Apartment / Condo),US
765,503e2e5fe4b08a07269773e7,47.643356,-122.139116,Hiking Trail,US
766,503bb871e4b0266f6a7e7935,47.666189,-122.374625,Athletic & Sport,US
767,503ac220e4b054a0912f9c00,47.616658,-122.327675,Arcade,US
768,503aa48be4b07c3e0843e3ba,47.693392,-122.305909,Lake,US
769,503a9ee7e4b04042f65f86ad,47.569778,-122.370905,Restaurant,US
770,503a590be4b06ee16ebd07ee,47.585498,-122.232997,Bagel Shop,US
771,5039a45ae4b0b7277bf69d46,47.616924,-122.194326,Indie Movie Theater,US
772,503945578055e08b0435aabb,47.572328,-122.370551,Winery,US
773,503936b3e4b0124e43e07b7f,47.513489,-122.251358,Home (private),US
774,50392eb2e4b03dc3d240cb3f,47.620738,-122.360819,Bridge,US
775,50384bb5e4b0b35a24e8d6ea,47.612759,-122.191422,Italian Restaurant,US
776,503832afe4b0cee4d4e44ef3,47.621212,-122.339614,Winery,US
777,5037ee84e4b0218ac1b535a9,47.615246,-122.347597,Mexican Restaurant,US
778,50358fb3e4b0006c005fa548,47.618152,-122.321793,Residential Building (Apartment / Condo),US
779,50351b2ee4b0d33c110bda7e,47.703475,-122.326468,Parking,US
780,503511f0e4b0aa0a3c9b2c90,47.590401,-122.333942,Baseball Stadium,US
781,503439bce4b0567cc7665549,47.635973,-122.370457,Spa / Massage,US
782,5033f57de4b0a0b46fcf4abf,47.649458,-122.349467,Public Art,US
783,5033d6cde4b08b6c75f3a800,47.610682,-122.344101,Neighborhood,US
784,5032f527e4b0717d12e87b94,47.590243,-122.333619,Baseball Stadium,US
785,50329c52e4b0c1dbfce7cc5f,47.606044,-122.33722,Salon / Barbershop,US
786,50329acbe4b0d1f7665184dc,47.628052,-122.341813,Office,US
787,50325191e4b0836216d3b590,47.697766,-122.185842,Gym / Fitness Center,US
788,50319d7ae4b045150bd3d71a,47.651169,-122.354938,General Entertainment,US
789,50305425e4b0836215eff416,47.622082,-122.313018,Italian Restaurant,US
790,50302075e4b021f7a5636a18,47.622874,-122.337297,Other Great Outdoors,US
791,502ff7e3e4b01a4fc1ce0f3e,47.594432,-122.331863,Soccer Stadium,US
792,502fdd18e4b0c65b4b048d71,47.611641,-122.338287,School,US
793,502fcea4e4b0eed9c3bbe02d,47.649002,-122.348715,General Entertainment,US
794,502f15fbe4b06ef10dad9071,47.6384,-122.356422,American Restaurant,US
795,502f0515e4b0543f98f6f5b9,47.617931,-122.358513,Park,US
796,502ef401e4b045d78fabac76,47.606099,-122.310772,Smoke Shop,US
797,502ee8c7e4b0fdd3397cb116,47.612318,-122.319918,Home (private),US
798,502ea940e4b0dea80229a853,47.62667,-122.375837,Park,US
799,502ea1a9e4b0202f70ca0358,47.619928,-122.362074,Garden,US
800,502e97dde4b0f9a2dcef76e9,47.617221,-122.192293,Office,US
801,502e8e67e4b05f26af1fc09a,47.438936,-122.300617,Plane,US
802,502d7e25e4b060c1a47bd02f,47.446104,-122.294748,Convention Center,US
803,502d3e0ae4b06e61e0d8aabd,47.410271,-122.297509,Office,US
804,502d2657e4b06ef10cbd6ad5,47.587921,-122.333971,Event Space,US
805,502c5926e4b04de6f231d361,47.582567,-122.234854,Vietnamese Restaurant,US
806,502b4ffde4b0bea491c0ca57,47.514785,-122.285563,Neighborhood,US
807,502b360de4b0a1ba981fcd8b,47.461372,-122.293426,Rental Car Location,US
808,502aaf00e4b09cd8d8c0ab35,47.619703,-122.322744,Lounge,US
809,5029b061e4b0b811eaad4459,47.655196,-122.089798,Beach,US
810,5029adc2e4b0b12f2439c22f,47.61523,-122.345458,Gym,US
811,50299f24e4b0c7dc8005eaec,47.608529,-122.341352,Molecular Gastronomy Restaurant,US
812,502993eae4b01f9a0593d8ec,47.459969,-122.294932,Bus Line,US
813,5028592be4b07f3295f264f6,47.679422,-122.37491,Cocktail Bar,US
814,5028394fe4b0352ef9dc7170,47.501692,-122.269356,Neighborhood,US
815,5027f802e4b067a8629886c1,47.613402,-122.316926,Neighborhood,US
816,5027bfcbe4b0b57d72386050,47.448304,-122.30332,Plane,US
817,50271d5be4b00bbc7a485f95,47.548923,-122.330669,Storage Facility,US
818,5027098ae4b0f675673989d0,47.614502,-122.344465,Beer Garden,US
819,5026cbf8011cab28b7079784,47.750505,-122.229317,Home (private),US
820,5025f38ce4b090b4d55219ba,47.619428,-122.321089,Tech Startup,US
821,5025cc69e4b040ed525c816d,47.64277,-122.275494,Plaza,US
822,5025a599e4b00b8faa8bb129,47.676164,-122.206469,General Entertainment,US
823,5025a4b7e4b0a87841aaaf8d,47.618475,-122.329702,Road,US
824,50259257e4b02a96b1ac4a9f,47.668813,-122.386263,Pub,US
825,50256de5e4b00bee8185245c,47.622944,-122.354338,General Entertainment,US
826,50255971e4b0b95e98780f8c,47.619436,-122.355682,Mexican Restaurant,US
827,50254c57e4b0cdd7ebb7ab9f,47.612379,-122.332215,General Entertainment,US
828,502537fbe4b07379818e956c,47.619404,-122.339141,Event Space,US
829,5024972b8055b1005d0e3f89,47.681685,-122.125461,Thai Restaurant,US
830,50241d30e4b090dce17ba617,47.656353,-122.314668,New American Restaurant,US
831,5023eb77e4b07b39a52d5315,47.659016,-122.308059,College Academic Building,US
832,5022c888e4b009f5a10a9d0f,47.439552,-122.304253,Moving Target,US
833,5022c0a9e4b0fb901ce100df,47.620109,-122.321101,Mexican Restaurant,US
834,50227842e4b02c44b5ad7c55,47.625012,-122.356737,Lounge,US
835,50217a30e4b0e91812599053,47.463951,-122.287575,Bus Station,US
836,501e0766e4b0125d2763ec19,47.537478,-122.269174,Travel Lounge,US
837,501de7b5e4b03f68acc6b3ef,47.677104,-122.288269,Home (private),US
838,501d61a3e4b00422cae1faf0,47.606351,-122.271,General Entertainment,US
839,501d406fe4b087a0adf09ba4,47.498526,-122.203575,Event Space,US
840,501c6c2de4b0b87f22d8861c,47.65644,-122.315183,College Residence Hall,US
841,501c66d5e4b035a21fc686e0,47.613789,-122.320496,Nightclub,US
842,501c4f6ee4b04798bb63bbc0,47.664995,-122.291892,Home (private),US
843,501c40cbe4b0b87f22c1fa51,47.585088,-122.280603,Lake,US
844,501b37d9e4b06903c1fc9b4a,47.640142,-122.376056,Furniture / Home Store,US
845,501aecd5e4b0933c65119465,47.68144,-122.123375,Ice Cream Shop,US
846,501a8a70e4b02d7d14752271,47.569947,-122.278895,Event Space,US
847,5019e5bae4b00e994a15041a,47.602868,-122.334412,Gastropub,US
848,5019dfade4b05ddf5426df42,47.668487,-122.390346,Art Gallery,US
849,5019c8d5e4b093d4b0101093,47.623061,-122.336918,Vegetarian / Vegan Restaurant,US
850,5019c857e4b0bd052a91cf19,47.622147,-122.336862,American Restaurant,US
851,5019c779e4b0a4fc9fc2994e,47.619039,-122.338697,Bakery,US
852,5019c4c1e4b0ad58b3f72819,47.623793,-122.337071,Bakery,US
853,501951c4e4b0adfbcfee89ec,47.610488,-122.322712,Sandwich Place,US
854,50188ad9e4b097c9194701f1,47.612471,-122.346501,Nightclub,US
855,5018885ae4b0e69456b78402,47.67168,-122.342675,Lake,US
856,5018787ae4b0865976284ddf,47.604333,-122.334278,Yoga Studio,US
857,5018784be4b09e61e4eddab1,47.59368,-122.311214,Road,US
858,5018513ce4b04957f7f807b8,47.611598,-122.347119,Road,US
859,50183329e4b035110c98cee5,47.523514,-122.291411,Taxi,US
860,50180152067d9a3015d5d5d3,47.662309,-122.298657,Sporting Goods Shop,US
861,50173e11e4b0e3bcfbf73e1a,47.603975,-122.332741,Donut Shop,US
862,5016b60de4b0c3d592afc58b,47.650957,-122.349905,Bakery,US
863,5016269fe4b0535571a339b8,47.675655,-122.315533,Gastropub,US
864,50159127e4b0c3d592390f50,47.46573,-122.274769,Airport Gate,US
865,50148b23e4b0b96018485997,47.615504,-122.344373,General Entertainment,US
866,501475fae4b035d9f4b937a7,47.523387,-122.177239,Hiking Trail,US
867,50138bb3e4b0c3be97412814,47.613433,-122.325198,Coffee Shop,US
868,5013656ee4b0befd12e0d82b,47.733901,-122.324579,General Travel,US
869,50135bfde4b0adaeb09fd2d1,47.661426,-122.332964,Taco Place,US
870,5012d63ce4b088cc6bb966c6,47.614467,-122.333686,Pet Service,US
871,5011b535e4b08516d1297f1c,47.573574,-122.309042,Pub,US
872,50106fbbe4b0afaa4b175c2a,47.576702,-122.169833,Tea Room,US
873,5010691de4b0454c63c97f74,47.62952,-122.304917,Coffee Shop,US
874,501025e6e4b05969b6f50d37,47.631846,-122.380442,Harbor / Marina,US
875,500f353be4b00cb7c0fe0700,47.624723,-122.339523,Road,US
876,500f2cd1e4b0a572422dae9a,47.66856,-122.315417,Home (private),US
877,500ee6d0e4b08b8aba6ade67,47.611835,-122.337952,Salon / Barbershop,US
878,500eb7d0e4b0f6032ee32d72,47.662852,-122.374041,Donut Shop,US
879,500d71f8e4b0bab9bd1ab93b,47.615925,-122.337116,Office,US
880,500cb066e4b03c6eb41ac687,47.464498,-122.287499,Bus Line,US
881,500ca70ae4b0c26243ee1784,47.638507,-122.273216,Mountain,US
882,500c614ae4b009231302fe32,47.543338,-122.364995,Home (private),US
883,500b62a2e4b03c6eb389b662,47.6122,-122.201348,Candy Store,US
884,500b5e94e4b052b69f4ff3cc,47.658374,-122.280448,Neighborhood,US
885,500b56b9e4b01145790816cf,47.551102,-122.257871,Athletic & Sport,US
886,500b2748e4b0bab9bc25411e,47.588204,-122.151406,Field,US
887,500afcc8e4b0629c8b5b626a,47.47154,-122.334879,Plaza,US
888,500abf91e4b0b84fa2b0b28d,47.582108,-122.233892,Coffee Shop,US
889,500a0a8be4b0629c8af2e032,47.621774,-122.312826,Vietnamese Restaurant,US
890,5009f956067dc4c8b165a68b,47.652322,-122.35523,Brewery,US
891,5009b8b2e4b0f6804e2654f0,47.611983,-122.335866,Juice Bar,US
892,50097e0de4b0a5cfd6f89b8e,47.61412,-122.319402,Music Venue,US
893,50096d67e4b074c5b67df14a,47.622204,-122.35203,General Entertainment,US
894,50090271e4b00abeae1ff137,47.647176,-122.382333,Residential Building (Apartment / Condo),US
895,500887e2e4b018497f9d9499,47.603815,-122.417749,Boat or Ferry,US
896,50088716e4b08aad427581a9,47.603007,-122.340967,Boat or Ferry,US
897,50074d3ee4b092ccf2c5647e,47.570331,-122.334042,Taxi,US
898,50074715e4b02732c12ec1cd,47.582056,-122.373269,Tech Startup,US
899,500615f9e4b0aba26d486d0c,47.633534,-122.324812,Residential Building (Apartment / Condo),US
900,5005f10be4b0ae599667ce2d,47.518514,-122.29593,History Museum,US
901,5005a19de4b0f0192b19739b,47.607356,-122.329312,Bakery,US
902,50058661e4b0d28cb435f43a,47.625313,-122.189889,Office,US
903,5004ee6ce4b0c7e95854000e,47.498108,-122.272343,Road,US
904,5004635fe4b077654ff7c484,47.617062,-122.316531,Sandwich Place,US
905,500391cfe4b07d578df4a3b1,47.610608,-122.333729,Gift Shop,US
906,500328f2e4b025b258f8800b,47.617149,-122.201302,Residential Building (Apartment / Condo),US
907,500322cfe4b06407f779f077,47.650859,-122.354424,Factory,US
908,50032284e4b05ceffcee087f,47.508143,-122.375915,Neighborhood,US
909,5001284be4b0a7c21247d370,47.491358,-122.292388,Residential Building (Apartment / Condo),US
910,5000f571e4b021927d588055,47.541672,-122.32232,Speakeasy,US
911,5000b841e4b0a74a52075b1d,47.448678,-122.303774,Plane,US
912,50009fdfe4b0d51a408ef9cb,47.601559,-122.391585,Lake,US
913,500084a8e4b05e79b02b7e1a,47.628032,-122.38176,Moving Target,US
914,4fff5146e4b0faeabbc3392e,47.617537,-122.347552,Coworking Space,US
915,4ffe471ae4b0bc6344e6dc23,47.614126,-122.324703,Event Space,US
916,4ffe2c59e4b018897f8245af,47.648659,-122.328735,Lake,US
917,4ffe23e1e4b0396b17017913,47.611724,-122.332596,Convention Center,US
918,4ffe0055e4b0faeabb34ddfe,47.507834,-122.338789,Home (private),US
919,4ffdf1d0e4b018897f686b5d,47.520129,-122.261078,Medical Center,US
920,4ffdcc77e4b07c449d9f6aa0,47.621321,-122.350863,American Restaurant,US
921,4ffd9047e4b0adc8f1f5d7e7,47.573504,-122.118503,Road,US
922,4ffd1b17e4b0dfc3061845cf,47.615153,-122.352194,Residential Building (Apartment / Condo),US
923,4ffc6d41e4b01adae59af768,47.714557,-122.188823,Doctor's Office,US
924,4ffc38f1e4b04f8b12fdebea,47.615821,-122.326858,Coffee Shop,US
925,4ffbb1f6e4b0f784b865bfdb,47.541725,-122.322289,Winery,US
926,4ffb82a3e4b0f784b8553a45,47.668422,-122.388521,Nail Salon,US
927,4ffb0b30e4b0b8fdabb4a1af,47.626578,-122.166169,Brewery,US
928,4ffaec9fe4b0ae40eea1ac27,47.645258,-122.122175,Building,US
929,4ffa58e0e4b0d6158571b358,47.602066,-122.301699,Beer Garden,US
930,4ffa45bbe4b0208919d76d07,47.633581,-122.324007,General Travel,US
931,4ff9dd83e4b048eef8ef5012,47.666994,-122.384989,Bar,US
932,4ff9b43a64a40b36eb5c7049,47.609476,-122.342366,Bakery,US
933,4ff93a23e4b024f55ad054ca,47.523871,-122.278699,Hot Spring,US
934,4ff86fa3e4b0c98ddd525da3,47.607992,-122.342024,Scenic Lookout,US
935,4ff76acce4b0e8d00da0d17a,47.598436,-122.32579,General Entertainment,US
936,4ff739b3e4b083d14c32547d,47.611668,-122.180269,Moving Target,US
937,4ff7316de4b07a70b8e684cd,47.621712,-122.352285,Event Space,US
938,4ff7286fe4b0fe7c210686b6,47.518308,-122.295904,Historic Site,US
939,4ff6ab48e4b0463f7100d9a0,47.437123,-122.292587,Meeting Room,US
940,4ff60052e4b02b9714aa02b3,47.607571,-122.316688,Coffee Shop,US
941,4ff5e1b9e4b01a84ed18f056,47.624142,-122.347206,Bus Line,US
942,4ff5de32e4b0a7f74007f48f,47.62251,-122.321318,Storage Facility,US
943,4ff4da2ee4b0734a79ad5992,47.639557,-122.326721,Nightclub,US
944,4ff4aad8e4b07a70b7def6fc,47.634655,-122.324067,Gay Bar,US
945,4ff482c2e4b054fba94bc4b3,47.471264,-122.335021,Coffee Shop,US
946,4ff47445e4b0fecb249e4120,47.433968,-122.277328,Bus Line,US
947,4ff3e9c1e4b020891721889b,47.619352,-122.323363,Residential Building (Apartment / Condo),US
948,4ff3dd74e4b033b23a19d3b9,47.555207,-122.172125,Neighborhood,US
949,4ff3af05e4b03705ccc8b34f,47.643106,-122.342939,Harbor / Marina,US
950,4ff37d3de4b0f1abba14151d,47.619465,-122.352982,Cocktail Bar,US
951,4ff2224ee4b0964c5e945b0b,47.6539,-122.323976,Seafood Restaurant,US
952,4ff1b0b1e4b092e4b2df5bc6,47.607006,-122.335537,Coffee Shop,US
953,4ff0cbf5e4b0db77af6277b9,47.721154,-122.208319,Spa / Massage,US
954,4ff07b37e4b0dc3476b6a9ab,47.538027,-122.353243,Dog Run,US
955,4ff0542ee4b02f36dbbd668a,47.514661,-122.285494,Miscellaneous Shop,US
956,4fefefabe4b0c8e6f5a440ba,47.441136,-122.303904,Airport,US
957,4fef771ae4b09670983c63e9,47.558959,-122.384881,Home (private),US
958,4fef5dfbe4b05dce3a61f74f,47.668797,-122.311809,Bus Station,US
959,4fef50fbe4b053eae0f1912a,47.627046,-122.337651,Historic Site,US
960,4fef1903e4b0c594c2a983e7,47.690308,-122.355315,General Entertainment,US
961,4fee47ce39507aae55935f5e,47.585587,-122.148056,Community College,US
962,4fee415be4b0e7487e8e1248,47.44763,-122.218136,Storage Facility,US
963,4fee2e9fe4b0a66e4016a2e7,47.597898,-122.329368,Train,US
964,4fee27b4d86cd6f22dceb696,47.47961,-122.204919,Pub,US
965,4fee1ecf1648ba9b637372b6,47.631966,-122.135847,Tea Room,US
966,4fee1e55e4b0b1e831174142,47.658599,-122.376218,Bridge,US
967,4fee0785e4b0e7487e751bfc,47.608707,-122.140204,Department Store,US
968,4fed2fece4b053eae0148809,47.704947,-122.326226,Nail Salon,US
969,4fed25cce4b0283e9a00f956,47.668839,-122.385743,Comedy Club,US
970,4fecfc32e4b038983bed674e,47.59095,-122.387659,Home (private),US
971,4fecec3be4b0103ff5f60bbb,47.614022,-122.198215,Restaurant,US
972,4fece2a0e4b0193fd0ba4bc3,47.647878,-122.202933,Park,US
973,4fece1d6e4b0f041d66361df,47.598185,-122.329444,Platform,US
974,4febc44ce4b0ce9bad6b0744,47.614157,-122.322259,Sports Bar,US
975,4feb7c5ae4b0676927c26d2c,47.608278,-122.339381,Ice Cream Shop,US
976,4feb3b19e4b0e50ec9619ac3,47.533661,-122.35807,Building,US
977,4feb27bd45b00b4100a0b2b1,47.66728,-122.107673,Building,US
978,4feb145de4b024f0132efb4e,47.628159,-122.141042,Coffee Shop,US
979,4fea0102be771cd8f770f4d3,47.616,-122.182131,Wine Shop,US
980,4fe9cffce4b0e37edca3331f,47.564307,-122.369579,Doctor's Office,US
981,4fe928b6e4b00764d73b0658,47.672833,-122.301844,Home (private),US
982,4fe908d1e4b0f742f969ebdd,47.615891,-122.305291,Neighborhood,US
983,4fe890dfe4b050dddf5794c6,47.615906,-122.195971,Office,US
984,4fe883851081598ef2e99183,47.693674,-122.344308,Caf,US
985,4fe80e3fe4b0227be0fa3b0e,47.663278,-122.316232,Nightclub,US
986,4fe7e2b4e4b0daa8b68b1f4f,47.464771,-122.358868,Lake,US
987,4fe7dbdde4b0972a1dc05afc,47.4439,-122.301032,General Travel,US
988,4fe7536fe4b0c83672394b92,47.625037,-122.350299,Garden,US
989,4fe6101de4b047eae93c74a2,47.618184,-122.199992,Restaurant,US
990,4fe60829e4b0bdc4f4678523,47.607478,-122.343094,Aquarium,US
991,4fe607d8e4b0227204130f21,47.609459,-122.204172,Salon / Barbershop,US
992,4fe5e6e9e4b0af2e673ba52e,47.610045,-122.209086,Residential Building (Apartment / Condo),US
993,4fe5b8ebe4b0ed119c4ad43c,47.622063,-122.349267,Athletics & Sports,US
994,4fe58c77e4b0d55efedb4ebf,47.612156,-122.345413,Mexican Restaurant,US
995,4fe51188e4b0345842fd3e95,47.590607,-122.310201,General Travel,US
996,4fe49714e4b02af3e62cbb09,47.604762,-122.335957,Building,US
997,4fe3c5cbe4b05c338938298a,47.620157,-122.323994,Housing Development,US
998,4fe390bfd5fb75c7344ab7c8,47.688735,-122.355101,Korean Restaurant,US
999,4fe36e94e4b0391ded80a469,47.615291,-122.324395,Mexican Restaurant,US
1000,4fe28694e4b08e15c7a9b6f4,47.442736,-122.239088,Miscellaneous Shop,US
1001,4fe28301e4b0fcbc92be6452,47.595128,-122.331528,Bar,US
1002,4fe230fde4b0bfba62fe340b,47.627279,-122.329855,Laboratory,US
1003,4fe22c40e4b00d46bce85a81,47.614141,-122.18601,Automotive Shop,US
1004,4fe2056fe4b0b79aba12f15d,47.628595,-122.383023,Scenic Lookout,US
1005,4fe0dc9be4b0dd09247d99cc,47.619518,-122.302196,Coffee Shop,US
1006,4fdf9dc1e4b0ae10129dbb2a,47.43305,-122.297351,Hotel Pool,US
1007,4fdf7805e4b0ec5a9009969b,47.64397,-122.13758,Mexican Restaurant,US
1008,4fde9e41e4b0ede382d2e0c0,47.422076,-122.335699,Church,US
1009,4fde566de4b01dfec0354e45,47.61829,-122.319403,Park,US
1010,4fddf33ae4b05197cdd3964d,47.52605,-122.254747,Other Great Outdoors,US
1011,4fdd720ae4b082d0768e8f01,47.581506,-122.385611,Dive Bar,US
1012,4fdd2ab4e4b057598b6009e0,47.611943,-122.327759,Residential Building (Apartment / Condo),US
1013,4fdce9ede4b0199802d819ad,47.651401,-122.355496,Art Gallery,US
1014,4fdcbe78e4b0dd796b77ea07,47.617789,-122.204068,Coffee Shop,US
1015,4fdc3714e4b0f18e77213be8,47.498762,-122.200538,Residential Building (Apartment / Condo),US
1016,4fdbfa5ee4b049c33b23dc0f,47.690572,-122.35488,Rock Club,US
1017,4fdbe3c3e4b059917441fb23,47.62327,-122.321024,Gourmet Shop,US
1018,4fdbb18be4b0032df6976faa,47.670448,-122.350987,Zoo,US
1019,4fdbad35c2ee25c7bbdbaa5d,47.611371,-122.326691,Residential Building (Apartment / Condo),US
1020,4fdba120e4b0647ab62ebd70,47.661517,-122.121599,General Entertainment,US
1021,4fdb8938e4b034b3a956188a,47.479227,-122.205263,Indian Restaurant,US
1022,4fdb88e07beb51f93eaf6264,47.612427,-122.335349,Ice Cream Shop,US
1023,4fdb5ea80039836a3e2a978b,47.459695,-122.291672,Rental Car Location,US
1024,4fda68c7e4b0403c61069d22,47.597668,-122.330557,Train,US
1025,4fda2e26e4b0a04895d379f2,47.610821,-122.200504,Building,US
1026,4fda0d23e4b01d43a3c6ddd4,47.672619,-122.110558,Coffee Shop,US
1027,4fd8eda0e4b05ff8b79c0574,47.632244,-122.326256,Home (private),US
1028,4fd8bcb0e4b01476c579c0d4,47.622433,-122.338715,Thrift / Vintage Store,US
1029,4fd8250ee4b073285b84948d,47.625086,-122.344536,Bar,US
1030,4fd7bacfe4b0d1cc32f7d21e,47.579683,-122.312093,Food Truck,US
1031,4fd791b4e4b09d7e935c6156,47.641918,-122.341644,Moving Target,US
1032,4fd73cc2e4b011dc7e4fa54a,47.62022,-122.360829,Laboratory,US
1033,4fd69952e4b05c6ceb810e9d,47.443627,-122.220681,Gym / Fitness Center,US
1034,4fd689ede4b07220ec00d20b,47.624416,-122.316307,Home (private),US
1035,4fd66337e4b0b31b85c35b10,47.66413,-122.313044,Thai Restaurant,US
1036,4fd6565ee4b01a8123f7c189,47.62252,-122.335648,Food Truck,US
1037,4fd53497e4b0a071e1fc6e82,47.442851,-122.300996,Light Rail,US
1038,4fd51a6de4b003bf7b2a93df,47.62804,-122.381874,Moving Target,US
1039,4fd4621ee4b0f4325d01c4f1,47.631394,-122.284112,Other Great Outdoors,US
1040,4fd3d21be4b05a4aba929ef6,47.614049,-122.345269,Cocktail Bar,US
1041,4fd3b4e8e4b05a4aba83d457,47.61609,-122.3428,Indian Restaurant,US
1042,4fd39305e4b05a4aba71159b,47.470242,-122.21167,Food Truck,US
1043,4fd2daeae4b03f13ec442f15,47.476602,-122.299122,Home (private),US
1044,4fd2c1d1e4b0b20a90630179,47.558484,-122.065111,General Entertainment,US
1045,4fd1da28e4b0b49d5ab429fe,47.612976,-122.316921,Rental Car Location,US
1046,4fd15f6de4b04e713c6f0059,47.600224,-122.323525,Home (private),US
1047,4fd12f3de4b063d5f7232056,47.607936,-122.333903,Event Space,US
1048,4fd12a06e4b0c730e3e3c644,47.448493,-122.303163,Plane,US
1049,4fd12390e4b0362dd34bba5c,47.605767,-122.3389,Medical Center,US
1050,4fd11923e4b0476b2966fbec,47.598263,-122.333962,Office,US
1051,4fd00dcae4b07545a47680b5,47.487364,-122.258288,General Travel,US
1052,4fcfe9dce4b05d152720c1f9,47.438076,-122.240913,Train,US
1053,4fcfe189e4b0ebc0f2b5e7f5,47.617058,-122.332283,Moving Target,US
1054,4fcfaad0e4b056ec4bd0d157,47.621149,-122.350681,Pizza Place,US
1055,4fcf9dfde4b0a25461983e15,47.547076,-122.387325,Spa / Massage,US
1056,4fcf9de4e4b00e6d065ec690,47.613379,-122.315464,Bank,US
1057,4fceab6fe4b08ffd9b7acb72,47.620195,-122.129498,Gym / Fitness Center,US
1058,4fcea894e4b0a581243c21f8,47.637027,-122.196271,Road,US
1059,4fce4672e4b0e9fccea7fea5,47.615121,-122.315086,Design Studio,US
1060,4fce28fce4b082b05d267dae,47.482414,-122.207888,Coworking Space,US
1061,4fcd1d64e4b01cbffca8aab5,47.632704,-122.187948,Road,US
1062,4fccf98de4b07d10e1bf210d,47.491948,-122.201657,Gift Shop,US
1063,4fcbd117e4b0c4b6a6e48708,47.576091,-122.419181,Lighthouse,US
1064,4fcbbd2de4b07471e0d9d642,47.550007,-122.317733,Art Gallery,US
1065,4fcb1c71e4b057a7eec838cf,47.601088,-122.303481,Residential Building (Apartment / Condo),US
1066,4fcafcb44fc6d7af068b61ce,47.615219,-122.314224,Ice Cream Shop,US
1067,4fcae05be4b057a7eeab6e02,47.686489,-122.3768,Office,US
1068,4fcac595e4b076524db99448,47.612318,-122.319918,Home (private),US
1069,4fcaafdfe4b07471e03dbc20,47.618638,-122.195231,Home (private),US
1070,4fca8524e4b00af050873f6f,47.612347,-122.352844,Roof Deck,US
1071,4fca6337e4b008fb538ff6d1,47.462625,-122.303717,General Travel,US
1072,4fca599fe4b098b3ef2db62f,47.644113,-122.113836,Home (private),US
1073,4fca452de4b0ba2d58c58b76,47.622931,-122.354815,Science Museum,US
1074,4fc98a49e4b0ad18c6c5c406,47.635177,-122.145839,Caf,US
1075,4fc95853e4b092e3b94a2f4f,47.610057,-122.340255,Cupcake Shop,US
1076,4fc94d9fe4b07b66d313f3f8,47.605237,-122.334116,Office,US
1077,4fc921f8e4b04d3e921b5d4c,47.668488,-122.37602,Bus Line,US
1078,4fc91480e4b032a186a2baa3,47.704339,-122.325744,Taco Place,US
1079,4fc908ace4b0c2090e7e53fa,47.676726,-122.130848,Office,US
1080,4fc84628e4b01d2b6956206c,47.728248,-122.217751,Neighborhood,US
1081,4fc826afe4b067bcc4582bc0,47.616353,-122.201842,Lounge,US
1082,4fc7ce8510810a143890101a,47.555156,-122.067761,Park,US
1083,4fc7925fe4b08d84810649f0,47.611002,-122.334097,Hotel,US
1084,4fc779f4e4b04e646d476681,47.539747,-122.387191,Bus Line,US
1085,4fc77798e4b08b663dcc235c,47.597874,-122.328085,Bus Line,US
1086,4fc6c07be4b03776d9b2a9a4,47.424397,-122.307312,Bank,US
1087,4fc6b18ee4b007719ac984cc,47.589745,-122.260563,Bridge,US
1088,4fc65f9ae4b06e7a933a1a8f,47.611617,-122.347312,Building,US
1089,4fc5d81be4b01c7a8963c527,47.661537,-122.324507,Residential Building (Apartment / Condo),US
1090,4fc5156ae4b066035cdc8b26,47.675505,-122.20562,Vietnamese Restaurant,US
1091,4fc508c0e4b0c82f5fcc46a5,47.609917,-122.338448,Tech Startup,US
1092,4fc50339d5fbe3b43512062d,47.604492,-122.309975,Home (private),US
1093,4fc4e2c0e4b0d678236d4fec,47.619108,-122.312008,Doctor's Office,US
1094,4fc4291fe4b0decd31954ff7,47.6966,-122.274225,Trails,US
1095,4fc407d2e4b0c9a9f2501f7b,47.744583,-122.32299,BBQ Joint,US
1096,4fc3b376e4b058bc48fe8b86,47.627731,-122.3832,Boat or Ferry,US
1097,4fc3a7c5e4b0cec932fe0f14,47.656142,-122.405245,Playground,US
1098,4fc19c64e4b01d437e267643,47.670998,-122.121698,Sushi Restaurant,US
1099,4fc198dfe4b0d6554a7e6c05,47.681374,-122.274692,Home (private),US
1100,4fc150a7e4b0d5162509ffc5,47.689798,-122.210621,Factory,US
1101,4fc12217e4b014a2d69199da,47.622137,-122.351605,General Entertainment,US
1102,4fc11066e4b008d93aa164d0,47.673325,-122.118166,Nail Salon,US
1103,4fc0e729e4b0b469de95dc87,47.518771,-122.19697,Coffee Shop,US
1104,4fc068d6e4b08acaf440258c,47.736271,-122.344438,Home (private),US
1105,4fc051b6e4b045c5b4cdc429,47.662282,-122.354505,Bridge,US
1106,4fc04b70e4b0c9a9f0f19cc2,47.687614,-122.329453,Dog Run,US
1107,4fc03f1de4b0b469de5be211,47.683517,-122.182745,Gas Station / Garage,US
1108,4fc03b2fe4b0e4e80c7c107b,47.572159,-122.293762,Fried Chicken Joint,US
1109,4fbfea23e4b0b559e9156df7,47.662676,-122.304674,Mosque,US
1110,4fbfe90fe4b021b6df43f08b,47.61132,-122.337495,Art Gallery,US
1111,4fbfa89ee4b0fddeca5b5cef,47.606223,-122.34232,Theme Park,US
1112,4fbf1714e4b0ed13983a26c2,47.619507,-122.351701,History Museum,US
1113,4fbf0578e4b0ac05c899f239,47.67615,-122.207136,Sports Bar,US
1114,4fbf0532e4b06470853d3484,47.613713,-122.337382,Multiplex,US
1115,4fbec488e4b02ad5db7a309e,47.576134,-122.320985,Music Venue,US
1116,4fbd4926e4b0da120ac20da3,47.515422,-122.298741,Factory,US
1117,4fbd363be4b0a73b8873fb67,47.701331,-122.281015,Home (private),US
1118,4fbc3c56e4b040663f5608cd,47.75684,-122.241899,Brewery,US
1119,4fbc01b7e4b0ef3c2e04ee00,47.606028,-122.336236,Hotel,US
1120,4fbbd49ce4b007859e40ba08,47.680297,-122.134002,Tech Startup,US
1121,4fbbb367e4b0e5d95becc715,47.536489,-122.279136,Platform,US
1122,4fbb162ae4b007859dfffb88,47.570091,-122.394673,Residential Building (Apartment / Condo),US
1123,4fbaf12ee4b0766311a517a8,47.664907,-122.321174,Dive Bar,US
1124,4fbaed13e4b0b3a9949ef154,47.572082,-122.386884,Residential Building (Apartment / Condo),US
1125,4fba98d6e4b0d7e9f82b60b6,47.441873,-122.299602,Moving Target,US
1126,4fba7da14fc657fa45b0bb6c,47.671803,-122.32255,Park,US
1127,4fb97332e4b0544619fc944a,47.616839,-122.348516,Farm,US
1128,4fb97216e4b04d2c1d4fd605,47.634729,-122.340482,Design Studio,US
1129,4fb949cae4b0bd07fe053b6c,47.627628,-122.382556,Moving Target,US
1130,4fb883c7e4b0e055b5873fb1,47.548796,-122.316556,Diner,US
1131,4fb866cae4b0492f0fae2502,47.47562,-122.226543,Resort,US
1132,4fb7f128e4b0d5ed25a73486,47.609744,-122.342107,Cheese Shop,US
1133,4fb7e233e4b04427edc85d86,47.560615,-122.090629,Road,US
1134,4fb7a51fe4b04e126fb9cc94,47.700992,-122.326247,Soccer Field,US
1135,4fb74973e4b0426329879f86,47.603907,-122.181898,Bridge,US
1136,4fb70f6ce4b023a707b3317b,47.667947,-122.385643,Dessert Shop,US
1137,4fb6f6b5e4b06452f328b8c6,47.614633,-122.321835,General Entertainment,US
1138,4fb6ef9de4b04e126f7fcc83,47.718824,-122.164235,Gym,US
1139,4fb6b00e6d866364e7fdca02,47.654375,-122.320833,Scenic Lookout,US
1140,4fb6a003e4b037d01dc21077,47.678925,-122.211264,Park,US
1141,4fb69e78e4b0ce16f1bd76bc,47.59915,-122.329148,Public Art,US
1142,4fb68613e4b03322467127af,47.609471,-122.340274,Mexican Restaurant,US
1143,4fb5eaccbb3d6ca33fe10dd7,47.59822,-122.327485,Bus Station,US
1144,4fb5d0cdf690b254ce869e65,47.577254,-122.298257,Nightclub,US
1145,4fb5824be4b09a973762959c,47.610588,-122.326439,Bus Line,US
1146,4fb577a1e4b035aaa8c0b188,47.570143,-122.326032,Theme Park,US
1147,4fb57148e4b0ba724f743508,47.461351,-122.292924,Rental Car Location,US
1148,4fb5540fe4b00018c8f6884c,47.667385,-122.10569,Design Studio,US
1149,4fb54ff4e4b0b88193d0e937,47.598107,-122.327871,Bus Line,US
1150,4fb5238ce4b0e2e80157c4d9,47.614105,-122.339334,Convenience Store,US
1151,4fb48741e4b06fa0ebc197fc,47.644347,-122.322645,Home (private),US
1152,4fb46e60e4b07727d09accdd,47.541712,-122.322368,Speakeasy,US
1153,4fb43686e4b021e74eabee53,47.684577,-122.376294,Residential Building (Apartment / Condo),US
1154,4fb4080be4b0a0f959c7a732,47.474974,-122.20484,Courthouse,US
1155,4fb3b240e4b00e09e22ac035,47.446401,-122.300266,Airport Terminal,US
1156,4fb31030e4b0e9a98d0a1ee0,47.616814,-122.328659,Gym,US
1157,4fb2f37ce4b0e3115bad3e2d,47.685808,-122.25531,Bus Line,US
1158,4fb2e83be4b034ff6702468c,47.610903,-122.337189,Garden,US
1159,4fb2ca63bb3df829dcc3a7ec,47.576844,-122.290106,Other Great Outdoors,US
1160,4fb2c465e4b06a2ccfaddbc0,47.620753,-122.350216,Restaurant,US
1161,4fb2ba0abb3df829dcc1ca24,47.697271,-122.308152,Playground,US
1162,4fb293c8e4b05768be297d82,47.650981,-122.322435,Office,US
1163,4fb25358e4b0bb3b419b7346,47.457604,-122.342408,Hospital,US
1164,4fb18f18e4b010d66e81ba9f,47.616542,-122.351734,Vietnamese Restaurant,US
1165,4fb17f9de4b068d85dc05581,47.612663,-122.352989,Law School,US
1166,4fb170d5e4b0216f686dc258,47.646614,-122.137659,Coworking Space,US
1167,4fb12860e4b0f4503b2078b1,47.649204,-122.3083,Hospital,US
1168,4fb04969e4b085862f46a8c7,47.514913,-122.385688,Home (private),US
1169,4fb00902e4b078fd5bab4499,47.606618,-122.177196,Garden,US
1170,4faffddde4b08159086dc3da,47.6503,-122.3547,Food Truck,US
1171,4fafb579e4b0fd09a9991cc2,47.622316,-122.35225,Track,US
1172,4faf5fa7e4b0ffee0c678cb2,47.73545,-122.172277,Home (private),US
1173,4faf37a8e4b047f11d6ddf62,47.551148,-122.374936,Home (private),US
1174,4faf09e0e4b0a5d4c0e57c9c,47.55209,-122.32891,Bar,US
1175,4faeb986e4b08260e402854a,47.606684,-122.338707,Park,US
1176,4fadfc6de4b0d39d52e2675c,47.617212,-122.291456,Moving Target,US
1177,4fad9ed5e4b04792c327d7fa,47.698806,-122.438831,Athletic & Sport,US
1178,4fad701277161a1c0547183a,47.590232,-122.317593,Garden,US
1179,4fad2776e4b0bd8332fd432d,47.615074,-122.316542,Dentist's Office,US
1180,4facb7740cd6ec42ab3678da,47.447158,-122.288733,Bar,US
1181,4fac79a4e4b0ad9c3fbe5cbe,47.551148,-122.374936,Home (private),US
1182,4fac1c36e4b0256bff1c0784,47.562527,-122.307076,Bus Line,US
1183,4fabdc16e4b0381a48e52916,47.59973,-122.308548,Residential Building (Apartment / Condo),US
1184,4fab0a32e4b09016f6930a85,47.6439,-122.132297,General Travel,US
1185,4fab0482e4b0420128082a12,47.605621,-122.331042,Bus Line,US
1186,4faabfdce4b0685b5ab2ef9f,47.628617,-122.135127,Sandwich Place,US
1187,4faaa774e4b0f8dd9870b9e2,47.480335,-122.208484,Event Space,US
1188,4faa7ca8e4b0b29e39d78f1e,47.73401,-122.323601,General Travel,US
1189,4faa1367e4b0061d169f2b7c,47.736524,-122.204064,Housing Development,US
1190,4fa9d1a0e4b0aecc8286d46d,47.615921,-122.193695,Office,US
1191,4fa9ceb8e4b07145ca7b0dc3,47.688509,-122.32176,Home (private),US
1192,4fa9ab9de4b05573310ee424,47.66951,-122.123227,Mobile Phone Shop,US
1193,4fa98e2ae4b04f61e27b3347,47.651518,-122.350171,Restaurant,US
1194,4fa98746e4b0f05bebb633d7,47.645317,-122.121987,Office,US
1195,4fa97891e4b07650f7b12097,47.609201,-122.340879,Mexican Restaurant,US
1196,4fa92f24e4b07650f7949c6e,47.577781,-122.327698,Building,US
1197,4fa847b4e4b0be2637a2bda1,47.734348,-122.326151,Doctor's Office,US
1198,4fa80007e4b017e939e7fc15,47.616852,-122.192666,Office,US
1199,4fa7fc2ae4b039aeed33d99e,47.607505,-122.328129,Coffee Shop,US
1200,4fa72f1de4b063f1236d4e76,47.756487,-122.235415,Thai Restaurant,US
1201,4fa6d38ae4b0752c6a6e39cd,47.651589,-122.35611,Food Truck,US
1202,4fa6a9e6e4b0b487cef1cf20,47.617788,-122.326049,Bakery,US
1203,4fa6a0c1e4b017e938f221bd,47.651777,-122.35578,Food Truck,US
1204,4fa5d6e3e4b038e6a2bc072a,47.640073,-122.336208,Home (private),US
1205,4fa5d1dbe4b098f42b8a826a,47.61421,-122.345092,Jazz Club,US
1206,4fa58610e4b0752c697eb842,47.593359,-122.332188,Soccer Field,US
1207,4fa56a64e4b0c1088e4dd4b7,47.589181,-122.387855,Neighborhood,US
1208,4fa55342e4b017a5dfddb2ac,47.612991,-122.313787,Residential Building (Apartment / Condo),US
1209,4fa4a8d9d06535d667293d38,47.661753,-122.318059,Movie Theater,US
1210,4fa48596e4b01208fa052ec9,47.59881,-122.328721,Bus Line,US
1211,4fa45bc2e4b08e1f880c71a1,47.447082,-122.30053,Plane,US
1212,4fa44ecfe4b02175373cc0bd,47.61629,-122.204902,Donut Shop,US
1213,4fa42f6de4b0f902067b3334,47.605878,-122.323961,Hospital,US
1214,4fa41875e4b0dd0f119db63f,47.609976,-122.340773,Miscellaneous Shop,US
1215,4fa40bc3e4b0548305d8bd2f,47.615333,-122.35404,Office,US
1216,4fa3e050e4b02443357b1937,47.579104,-122.299541,Coffee Shop,US
1217,4fa339b2e4b09d4d43f3cf6e,47.609977,-122.341412,Korean Restaurant,US
1218,4fa27007e4b099a8dd9d7a68,47.44443,-122.300497,General Travel,US
1219,4fa1e9a8e4b04db7bd687de5,47.427239,-122.295471,Office,US
1220,4fa1e066e4b0451754529f78,47.619091,-122.130736,American Restaurant,US
1221,4fa19d01e4b0da4fd9ebb7fd,47.577549,-122.334339,Cuban Restaurant,US
1222,4fa18472e4b0e93e34286daf,47.566496,-122.325392,Coworking Space,US
1223,4fa162aae4b0f5a96e2cd397,47.623833,-122.354325,Residential Building (Apartment / Condo),US
1224,4fa15107e4b0b74f3572f4a2,47.571507,-122.338946,Road,US
1225,4fa14e06e4b0ee815cf037fc,47.559668,-122.339899,Government Building,US
1226,4fa0c1e7e4b07aaa44ba7c23,47.616258,-122.315881,Strip Club,US
1227,4fa05d8de4b01b068f92a2d8,47.585315,-122.148401,College Classroom,US
1228,4fa035ace4b0f94854972efc,47.610961,-122.201769,Thai Restaurant,US
1229,4fa0138ce4b08f8515b1a0e2,47.616017,-122.196607,Tech Startup,US
1230,4f9fff9fe4b0254828704e53,47.655404,-122.310694,College Arts Building,US
1231,4f9f19ece4b0d215c20922de,47.638101,-122.125501,Conference Room,US
1232,4f9f14c0e4b0296e0de5b392,47.610171,-122.333563,Dessert Shop,US
1233,4f9f100de4b08ea03b5d6a41,47.651195,-122.354919,Beer Garden,US
1234,4f9ef793e4b08ea03b4b246d,47.605407,-122.323968,Hospital,US
1235,4f9ee463e4b008dde3867ffb,47.618729,-122.359155,Food Truck,US
1236,4f9ee1aae4b0a3d1de167365,47.618948,-122.360924,Track,US
1237,4f9ee139e4b065054e0a950b,47.619544,-122.361903,Track,US
1238,4f9de3f3e4b02343c9945bc9,47.703609,-122.175107,Bar,US
1239,4f9dd4a0e4b0b34c44e66509,47.60944,-122.201059,Nail Salon,US
1240,4f9da00ae4b020e610a1f562,47.613661,-122.334957,General Entertainment,US
1241,4f9d9a9ce4b0027bd5be8959,47.56238,-122.387091,Italian Restaurant,US
1242,4f9d4d28e4b060643030ebc0,47.680161,-122.327832,Other Great Outdoors,US
1243,4f9cdc88e4b0e445b7b4039c,47.544023,-122.294935,Rest Area,US
1244,4f9cb869e4b0f1efa8533342,47.70482,-122.246312,Beach,US
1245,4f9c924ae4b0e9595b37ae99,47.543034,-122.267546,Lounge,US
1246,4f9c67d5e4b03d83ecc3e63d,47.733418,-122.283713,Home (private),US
1247,4f9c28c1e4b02aa9bff0b5d8,47.623011,-122.296484,Park,US
1248,4f9b984de4b0ec21f4c5e2a9,47.591512,-122.142047,Home (private),US
1249,4f9b81fde4b0849acfc41e9c,47.524989,-122.294485,Strip Club,US
1250,4f9b6797e4b02aa9bf658557,47.618104,-122.1911,Residential Building (Apartment / Condo),US
1251,4f9ab1dcd4f2465542bc6845,47.448426,-122.302246,Sports Bar,US
1252,4f9ab1dcd4f2465542bc683c,47.441921,-122.303503,Pub,US
1253,4f9ab1dcd4f2465542bc6839,47.443652,-122.303416,Restaurant,US
1254,4f99efb9e4b066b3d2d109b5,47.431935,-122.299136,Coworking Space,US
1255,4f99e744e4b0b5f80225a37a,47.593955,-122.31061,Office,US
1256,4f99b209e4b0e9b797795e08,47.46629,-122.342065,Mediterranean Restaurant,US
1257,4f998ee1e4b0f1a7449e7498,47.545703,-122.314126,Gas Station / Garage,US
1258,4f9989a5e4b03e35c2fa0fad,47.672525,-122.378624,Dog Run,US
1259,4f9963b1e4b0fa09aeefb18b,47.589169,-122.302628,Moving Target,US
1260,4f9956e9e4b0aa6bb772b387,47.443425,-122.301358,Airport,US
1261,4f987b58754a4eda4accd552,47.597366,-122.328687,Conference Room,US
1262,4f9866cfe4b049115d56df31,47.6441,-122.138014,Factory,US
1263,4f985413e4b0e843946ef361,47.61309,-122.302656,Mediterranean Restaurant,US
1264,4f97405be4b0c9bdcd2ab59b,47.599984,-122.335884,Scenic Lookout,US
1265,4f96eed4e4b0dc9b1023914d,47.496149,-122.193648,Other Great Outdoors,US
1266,4f95d7f8e4b032468f879059,47.620869,-122.33833,Gym,US
1267,4f95a859e4b0ab5f0b96c24f,47.613427,-122.315648,Residential Building (Apartment / Condo),US
1268,4f958b09e4b01b8991353512,47.615007,-122.194966,Plaza,US
1269,4f9568cae4b01970bd40ccd2,47.479887,-122.217981,Bus Station,US
1270,4f94ab4de4b0f0f87e5517d1,47.487257,-122.218148,Scenic Lookout,US
1271,4f94a1f2e4b032461a523559,47.647128,-122.387022,Residential Building (Apartment / Condo),US
1272,4f949b2ce4b01b899094d6c6,47.609984,-122.340237,Ice Cream Shop,US
1273,4f943aa3e4b01970bc72ae5e,47.605251,-122.311722,Neighborhood,US
1274,4f93abace4b03330aa7fe847,47.70841,-122.316229,Asian Restaurant,US
1275,4f934bede4b0a20c2656b8b8,47.509849,-122.463868,Neighborhood,US
1276,4f933e9de4b0aa82474a58bd,47.443518,-122.219402,Deli / Bodega,US
1277,4f930d2ee4b03c105327ca1e,47.62167,-122.349574,Plaza,US
1278,4f92ce16e4b0a20c25e90635,47.561905,-122.294014,Moving Target,US
1279,4f9282e9e4b0242d60bbed94,47.722668,-122.213068,Home (private),US
1280,4f92464ee4b05c165aa84b86,47.6694,-122.312876,Hookah Bar,US
1281,4f91b739e4b076d2c9b570f9,47.661063,-122.342052,Drugstore / Pharmacy,US
1282,4f91a155e4b01406ec152159,47.732183,-122.292037,Car Wash,US
1283,4f91656ae4b07256ee63e7e1,47.444954,-122.300936,Plane,US
1284,4f90f4a4e4b048b2e40689e5,47.578858,-122.391246,Home (private),US
1285,4f90d1fbe4b0c81eed27d33e,47.658305,-122.318926,Residential Building (Apartment / Condo),US
1286,4f90b47de4b0935b81b976a1,47.6226,-122.335095,Tech Startup,US
1287,4f9084ece4b01cb311277511,47.571446,-122.355113,Road,US
1288,4f90669de4b01d8f6e23fbe1,47.609639,-122.141676,Pizza Place,US
1289,4f904c38e4b07368278448f0,47.737987,-122.312868,Miscellaneous Shop,US
1290,4f8f9c39e4b027bf9ca008b3,47.574192,-122.282628,Scenic Lookout,US
1291,4f8f7860e4b063d0a03d390b,47.672752,-122.119149,Tech Startup,US
1292,4f8f5965e4b0b7a4425c2e53,47.579233,-122.334262,Bus Station,US
1293,4f8eed04e4b01487d18d6800,47.606065,-122.33916,Office,US
1294,4f8e2390e4b0634d36c68a01,47.526695,-122.324477,Neighborhood,US
1295,4f8dc8e6e4b08101165ddd71,47.606907,-122.336288,Golf Course,US
1296,4f8dc224e4b0c10a70ea7bcf,47.611634,-122.347373,Building,US
1297,4f8d97fde4b00c10ec61ae76,47.607219,-122.328775,Doctor's Office,US
1298,4f8d2168e4b0b14f6c769953,47.624416,-122.316307,Home (private),US
1299,4f8ce5c3e4b037ca8410863f,47.675901,-122.263572,Bus Station,US
1300,4f8cb393e4b009dda34ae092,47.655506,-122.204193,BBQ Joint,US
1301,4f8cb168e4b0a791f55b9a07,47.432025,-122.251319,Coworking Space,US
1302,4f8c6b1de4b05ae88ba47f22,47.439279,-122.30069,Plane,US
1303,4f8c3175e4b04a0761219b9b,47.618128,-122.356029,Office,US
1304,4f8bb899e4b09efba39b1aff,47.759799,-122.374391,Home (private),US
1305,4f8b7a54e4b060b7f9538b98,47.680999,-122.127493,Sandwich Place,US
1306,4f8b43dde4b0202c07f458d4,47.74385,-122.26065,Piano Bar,US
1307,4f8b1204e4b002b90cc435ab,47.659824,-122.133649,Home (private),US
1308,4f8a4776e4b0c71a7293bdef,47.6667,-122.3835,Design Studio,US
1309,4f8a0031e4b0c71a72536a5c,47.61079,-122.332946,Convention Center,US
1310,4f89d2fae4b0ab5c88510984,47.636872,-122.066901,Home (private),US
1311,4f89c712e4b002b90b96cb97,47.599457,-122.332985,Food Truck,US
1312,4f88e7b1e4b056350efd3f84,47.490353,-122.245422,BBQ Joint,US
1313,4f88d22ce4b0b1c4af342868,47.685732,-122.337334,Sushi Restaurant,US
1314,4f885c13e4b005c390227fde,47.618302,-122.303704,Dentist's Office,US
1315,4f8856a5e4b0af04bf7d3fc5,47.610999,-122.33473,American Restaurant,US
1316,4f884f04e4b0ab0c19fd4295,47.623604,-122.320885,Bus Line,US
1317,4f880407e4b0cec3a9dcfbc1,47.587423,-122.143889,Housing Development,US
1318,4f8794ebe4b005979c903a36,47.755834,-122.329347,Road,US
1319,4f8760f5e4b0a95f92078e3c,47.611668,-122.180269,Road,US
1320,4f8747d2e4b0202c044952ad,47.615501,-122.195488,Sandwich Place,US
1321,4f873754e4b056350d6eb4d8,47.650953,-122.310951,College Science Building,US
1322,4f872422e4b07efb9bc01383,47.486111,-122.294827,Doctor's Office,US
1323,4f87171de4b055d22dd4df28,47.610039,-122.334462,Hotel Bar,US
1324,4f8716aae4b047d847fe04e6,47.443661,-122.303419,Plane,US
1325,4f8709ebe4b0af4d4bb3635c,47.597539,-122.329355,Platform,US
1326,4f8709c1e4b0a95f91b5fbee,47.598131,-122.329663,Platform,US
1327,4f859e33754a821f85605768,47.624258,-122.15577,Salon / Barbershop,US
1328,4f84d249e4b0d96eb819c0da,47.612212,-122.340761,Event Space,US
1329,4f84b72de4b0cb1d2d2feca7,47.621294,-122.177818,Office,US
1330,4f845083e4b0e8bef1e72cd6,47.6334,-122.326324,Meeting Room,US
1331,4f83af9de4b05b00940fa3bc,47.449209,-122.332003,Playground,US
1332,4f83714ce4b07ae1409cfabf,47.66419,-122.315575,Motel,US
1333,4f834939e4b020c7c0aae5af,47.622541,-122.3367,Plaza,US
1334,4f83444fe4b088078183caf3,47.512282,-122.354959,American Restaurant,US
1335,4f8313e9e4b02f458271343b,47.45746,-122.247319,Office,US
1336,4f82da5ae4b0bc14194e10bf,47.442012,-122.303356,Plane,US
1337,4f82a4ec4fc6e24134d4b2ee,47.668978,-122.300341,Residential Building (Apartment / Condo),US
1338,4f823bbae4b00084dc18b2e4,47.583911,-122.302632,Deli / Bodega,US
1339,4f81df17e4b0e160baa576af,47.610079,-122.197694,Coffee Shop,US
1340,4f8135bbe4b08004b4c5bd8f,47.664567,-122.381246,Pizza Place,US
1341,4f810195d5fb964a8605907c,47.663431,-122.157139,Home (private),US
1342,4f8100a1e4b0bc1417a40619,47.594187,-122.327751,Light Rail,US
1343,4f809f30e4b0c0cb03a1359a,47.662567,-122.297225,Cheese Shop,US
1344,4f808ce2e4b0acccb8257b3a,47.551438,-122.327694,Restaurant,US
1345,4f8087f9e4b007a6656109cc,47.619515,-122.354919,Water Park,US
1346,4f806c36e4b0c0cb0364e848,47.680954,-122.407036,Athletic & Sport,US
1347,4f7fc65be4b0acccb76a899f,47.695499,-122.159739,Home (private),US
1348,4f7faf06e4b042dc20145469,47.596941,-122.059054,Farm,US
1349,4f7fa4c6e4b020c7bd29df93,47.616793,-122.348398,Bus Station,US
1350,4f7f6f8ce4b08fc03a507354,47.605555,-122.330727,City Hall,US
1351,4f7f4f99e4b05ed86072eed5,47.617559,-122.357706,Food Truck,US
1352,4f7e77cee4b012f96422faeb,47.623696,-122.353371,Home (private),US
1353,4f7e6bcae4b09855f146cd58,47.613718,-122.344995,Art Gallery,US
1354,4f7e5561e4b043dab42ccca5,47.612216,-122.335751,Caf,US
1355,4f7e51c1e4b0340b43dc18e8,47.611816,-122.3442,Coworking Space,US
1356,4f7d33ca4fc677cf99430693,47.624577,-122.356668,Neighborhood,US
1357,4f7cfe53e4b0fe0940f3e49c,47.611035,-122.198917,Mall,US
1358,4f7ccddae4b0b591d58d7e1c,47.578407,-122.207089,Road,US
1359,4f7cb059e4b06277b4a717ea,47.436176,-122.323408,Home (private),US
1360,4f7ca1f8e4b0a2f6909c30ae,47.610076,-122.337152,Office,US
1361,4f7c99b9e4b06978a7d5631e,47.622631,-122.335596,Food Truck,US
1362,4f7b9005e4b09b8aea78aa86,47.61222,-122.196747,Office,US
1363,4f7b8b80e4b02cc04d4f912f,47.557654,-122.284832,Juice Bar,US
1364,4f7b4d05e4b0dd0db0360458,47.581429,-122.3352,Food Truck,US
1365,4f7b11d3e4b07183b502f9b0,47.6183,-122.347126,Coffee Shop,US
1366,4f7ac537e4b006539ad21876,47.572213,-122.098826,Home (private),US
1367,4f7a79ece4b0220e0f5758eb,47.605533,-122.323292,Residential Building (Apartment / Condo),US
1368,4f7a3cdee4b0be463825a298,47.536522,-122.273996,Coffee Shop,US
1369,4f7a2ec2e4b0f909574b0435,47.663291,-122.375423,Tech Startup,US
1370,4f79eb16d4f2c803d0e33837,47.44869,-122.302447,Plane,US
1371,4f79eb15d4f2c803d0e336f7,47.449006,-122.302781,Plane,US
1372,4f79dc15e4b05c37fdae461d,47.617174,-122.330062,Tech Startup,US
1373,4f79d415e4b0e0abc68fcd7d,47.60812,-122.335547,Tech Startup,US
1374,4f79c2a3e4b015b23f285fb7,47.611131,-122.349343,Convention Center,US
1375,4f793be80cd67590e1236a6a,47.578813,-122.324889,Office,US
1376,4f790463e4b0764825dabf30,47.599638,-122.330216,Antique Shop,US
1377,4f78f4d8e4b06bb77fd2f0de,47.506321,-122.296637,River,US
1378,4f78b5cce4b0cbf9bf53e865,47.603799,-122.389453,Harbor / Marina,US
1379,4f789b6ae4b0cd7a3d111d69,47.435345,-122.293797,General Entertainment,US
1380,4f779f45e4b0c8b498480833,47.597501,-122.32776,Food Court,US
1381,4f77967ee4b0421082f33e7a,47.674601,-122.206599,Wine Shop,US
1382,4f763fb5e4b015efa41e9f9c,47.645174,-122.135378,Bus Line,US
1383,4f762fdae4b09a0a52a13ee2,47.619402,-122.341099,Dog Run,US
1384,4f762602e4b094893543131e,47.739778,-122.344789,Burger Joint,US
1385,4f76116cd4f2eb16ce34acab,47.438377,-122.302277,Plane,US
1386,4f760b48e4b0bf151a4505c9,47.537537,-122.283807,Housing Development,US
1387,4f75911de4b0f41a37a0ace1,47.572489,-122.307258,Home (private),US
1388,4f752ec8e4b04e9a8a16b3c1,47.590463,-122.248713,Basketball Court,US
1389,4f74ba5be4b0bdf32e940716,47.614265,-122.194659,Caf,US
1390,4f74b919e4b0fd5261895ed0,47.45783,-122.254441,Bus Line,US
1391,4f749731e4b0bdf32e70f96d,47.508227,-122.276905,Accessories Store,US
1392,4f74852fe4b0d6e33a90340b,47.666941,-122.383636,Building,US
1393,4f747bbee4b0da64dfbbef83,47.630781,-122.121739,Bus Station,US
1394,4f73fe12e4b08bc8e3df9d8d,47.529127,-122.271177,Home (private),US
1395,4f73b0a5e4b0da86fc98a8a4,47.632018,-122.117503,Home (private),US
1396,4f739278e4b0ee7d477e3d9b,47.661576,-122.319267,Coworking Space,US
1397,4f7352dde4b030aac70f3db9,47.601959,-122.187663,Office,US
1398,4f725517e4b0cb52548df383,47.603344,-122.330627,Moving Target,US
1399,4f7243bf7beba68ca267ed54,47.614929,-122.203801,Clothing Store,US
1400,4f723456e4b03ea6fcd8bd3a,47.617796,-122.352193,Residential Building (Apartment / Condo),US
1401,4f722833e4b05868a9b0bf15,47.581239,-122.335111,Food Truck,US
1402,4f71e45be4b02fc4366753ec,47.615917,-122.323575,Coworking Space,US
1403,4f71237ee4b0125a70b45110,47.607188,-122.188806,Travel Lounge,US
1404,4f709cafe4b056aa95822f62,47.549384,-122.276898,Neighborhood,US
1405,4f6fedb9e4b07fa2c7e8c19c,47.752644,-122.280418,Ice Cream Shop,US
1406,4f6f9798e4b0541c636724a2,47.604828,-122.315617,Government Building,US
1407,4f6e01bfe4b04cb294528856,47.703295,-122.185143,General Entertainment,US
1408,4f6ce337e4b0ad1af3fed1b3,47.708702,-122.312874,Mosque,US
1409,4f6cdd93e4b032eb6284197e,47.642047,-122.199459,Conference Room,US
1410,4f6cba19e4b0d4a5afdc217f,47.632358,-122.380403,Pier,US
1411,4f6c0df9e4b0e0075942c996,47.444267,-122.300888,Airport,US
1412,4f6be0fae4b032eb6191f65b,47.604791,-122.328924,Monument / Landmark,US
1413,4f6b8bf9e4b0bcd826bedcd5,47.610364,-122.336202,Clothing Store,US
1414,4f6b6f3ce4b0ef1d48b678a0,47.567498,-122.371194,Residential Building (Apartment / Condo),US
1415,4f6a8cb2e4b03571238b6e81,47.502321,-122.289364,Building,US
1416,4f6a71fae4b0a6e6227f0be6,47.740555,-122.330843,Home (private),US
1417,4f6a4d11e4b0a4e00df0240b,47.704764,-122.333697,Bus Station,US
1418,4f6a132de4b053cb56fa36c1,47.595466,-122.326239,General Entertainment,US
1419,4f68fd58003938727b46a5d7,47.665879,-122.382417,New American Restaurant,US
1420,4f68cb39e4b0b0f93d16d127,47.645001,-122.127104,Convention Center,US
1421,4f68066b6b74aa26bb575b89,47.619081,-122.359264,Food Truck,US
1422,4f67d1bee4b032b74cc629d8,47.421948,-122.229862,Home (private),US
1423,4f679dd9e4b0538e4a39e5ea,47.642175,-122.335942,Boat or Ferry,US
1424,4f66d250e4b0cded5e9795ac,47.536461,-122.273882,Gas Station / Garage,US
1425,4f667552e4b0746bea52935d,47.558455,-122.286978,Spiritual Center,US
1426,4f666da9e4b0e30d22793c9d,47.617179,-122.20151,Juice Bar,US
1427,4f659041e4b0c7552ddc7fee,47.615099,-122.316857,Ice Cream Shop,US
1428,4f657c2ce4b08383b299be45,47.619735,-122.351802,Movie Theater,US
1429,4f650cc7e4b03a7ce18d12cd,47.680919,-122.247726,Field,US
1430,4f64f3ace4b03a7ce172fa1b,47.469298,-122.336938,Bus Station,US
1431,4f64c7dae4b041039dfd1278,47.504662,-122.163959,Vietnamese Restaurant,US
1432,4f64bf99e4b03c270a1212b1,47.513263,-122.342593,Elementary School,US
1433,4f63fc70e4b06cb9fad46ca8,47.58374,-122.386355,Art Gallery,US
1434,4f63f17be4b0fd165c5b8e27,47.690531,-122.35518,Middle Eastern Restaurant,US
1435,4f635b0ee4b0bf1010d11088,47.668755,-122.384712,Coffee Shop,US
1436,4f62f753e4b0272f2aa16a59,47.439282,-122.301559,Plane,US
1437,4f62864ae4b0777dfa9d6b0a,47.569705,-122.331755,Train,US
1438,4f625a5ee4b0bedb2ae05bdc,47.659148,-122.313208,Convenience Store,US
1439,4f6149e9e4b0448e9ac76385,47.426439,-122.296602,Gym,US
1440,4f612557e4b07ccaa5366fd2,47.442727,-122.30088,Airport,US
1441,4f610c00e4b0a9d090afc668,47.473878,-122.226852,Factory,US
1442,4f60f804e4b01b3ebd5569d4,47.614715,-122.194222,Cafeteria,US
1443,4f60a781e4b0d9c9023d95d0,47.571639,-122.335378,Building,US
1444,4f60704de4b06b55135f7ed6,47.55328,-122.263946,Home (private),US
1445,4f5ffb62e4b0d9c901b6b926,47.650708,-122.406786,Home (private),US
1446,4f5ff5d5e4b000574316e0c5,47.645263,-122.325483,Neighborhood,US
1447,4f5fed9fe4b0f16f2851fb80,47.507834,-122.338789,Home (private),US
1448,4f5f8aa3e4b06c88610289af,47.431526,-122.317987,Deli / Bodega,US
1449,4f5ec736e4b0949d4126fc66,47.619471,-122.354728,Residential Building (Apartment / Condo),US
1450,4f5ec62fe4b06c88605c2908,47.623696,-122.353371,Home (private),US
1451,4f5e4cf8e4b0695cbcc997d9,47.630254,-122.325294,Road,US
1452,4f5d16a7e4b0c4b68a4f06d3,47.606152,-122.341698,Theme Park,US
1453,4f5cd922e4b082b23e5deff7,47.469256,-122.346645,Breakfast Spot,US
1454,4f5c4580e4b0c8398356eb67,47.676158,-122.208309,Bar,US
1455,4f5ba2a3e4b0a3bd22c94bdc,47.421948,-122.229862,Home (private),US
1456,4f5b9e93e4b04e1265adcf1f,47.444962,-122.303067,Neighborhood,US
1457,4f5b18e1e4b01f8f4b99a237,47.544137,-122.327623,Nightclub,US
1458,4f5b1150e4b0a4baa22acb05,47.660009,-122.342558,Home (private),US
1459,4f5a8ee8e4b00747d9af2fe5,47.610761,-122.335529,Women's Store,US
1460,4f5a58cee4b072fe9dec78b7,47.617312,-122.354421,Building,US
1461,4f5a2e2ce4b05b5a0a452a17,47.716115,-122.361006,Bus Line,US
1462,4f59f660e4b083219cf57fd8,47.522001,-122.365702,Grocery Store,US
1463,4f59f51fe4b05eee2babf68d,47.597793,-122.131189,Grocery Store,US
1464,4f597c86e4b00984bd6b677e,47.613521,-122.347479,Mexican Restaurant,US
1465,4f5977cae4b0a5edcff0d1f1,47.60716,-122.333936,New American Restaurant,US
1466,4f594267e4b05eee2b25072b,47.615278,-122.325222,Bus Line,US
1467,4f59263be4b0d28c6820b00f,47.671455,-122.110072,Dessert Shop,US
1468,4f590e8fe4b0b8ced7f022b2,47.588236,-122.315364,Neighborhood,US
1469,4f582c08e4b00d647a4c0b3e,47.613811,-122.345778,Cocktail Bar,US
1470,4f581226e4b017e9a11c808b,47.600382,-122.332822,Soccer Stadium,US
