pos,Property Name,Price,HouseType,Areainsqft,NoofBedrooms,NoofBathrooms,NoofReceptions,Location,City/County,PostalCode,lat,long,n_pois,distance_to_london,District_x,NCrime,DisToHospital,DisToSubway,DisToShool,HouseTypeLabel,Postcode,District_y,PostalCodeLabel
0.0,Queens Road,1675000.0,House,2716.0,5.0,5.0,5.0,Wimbledon,London,SW19 8NY,51.424773,-0.189474,441.0,10.687889027643552,Merton,15374.0,1.0335982259010903,1.059383724594948,0.8162854258865561,3,SW19 8NY,Merton,132946
1.0,Seward Street,650000.0,Flat / Apartment,814.0,2.0,2.0,2.0,Clerkenwell,London,EC1V 3PA,51.526404,-0.097853,8050.0,2.3150733178195333,Islington,31022.0,0.5773937746100949,0.7141822604917633,0.2493987086267189,2,EC1V 3PA,Islington,34893
568.0,Seward Street,650000.0,Flat / Apartment,674.0,2.0,2.0,2.0,Clerkenwell,London,EC1V 3PA,51.526404,-0.097853,1721.0,2.3150733178195333,Islington,31022.0,0.5773937746100949,0.7141822604917633,0.2493987086267189,2,EC1V 3PA,Islington,34893
601.0,Seward Street,655000.0,Flat / Apartment,703.0,2.0,2.0,2.0,Clerkenwell,London,EC1V 3PA,51.526404,-0.097853,9002.0,2.3150733178195333,Islington,31022.0,0.5773937746100949,0.7141822604917633,0.2493987086267189,2,EC1V 3PA,Islington,34893
1169.0,Seward Street,695000.0,Flat / Apartment,796.0,2.0,2.0,2.0,Clerkenwell,London,EC1V 3PA,51.526404,-0.097853,1.0,2.3150733178195333,Islington,31022.0,0.5773937746100949,0.7141822604917633,0.2493987086267189,2,EC1V 3PA,Islington,34893
2732.0,Seward Street,700000.0,Flat / Apartment,836.0,2.0,2.0,2.0,Clerkenwell,London,EC1V 3PA,51.526404,-0.097853,3945.0,2.3150733178195333,Islington,31022.0,0.5773937746100949,0.7141822604917633,0.2493987086267189,2,EC1V 3PA,Islington,34893
2.0,Hotham Road,735000.0,Flat / Apartment,761.0,2.0,2.0,2.0,Putney,London,SW15 1QL,51.46507,-0.223641,731.0,8.86494865952558,Wandsworth,27388.0,1.5832527060247106,1.072174675900264,2.1799813786813504,2,SW15 1QL,Wandsworth,126809
3.0,Festing Road,1765000.0,House,1986.0,4.0,4.0,4.0,Putney,London,SW15 1LP,51.4691,-0.222549,989.0,8.55617730819819,Wandsworth,27388.0,1.9568201250026105,0.951695051160156,2.090949346796368,3,SW15 1LP,Wandsworth,126760
4.0,Spencer Walk,675000.0,Flat / Apartment,700.0,2.0,2.0,2.0,Putney,London,SW15 1PL,51.463439,-0.222279,679.0,8.89115424470995,Wandsworth,27388.0,1.378741800715543,1.0573719981167362,2.228797223966693,2,SW15 1PL,Wandsworth,126793
5.0,Craven Hill Gardens,420000.0,Flat / Apartment,403.0,1.0,1.0,1.0,,London,W2 3EA,51.513018,-0.182494,4653.0,4.484728881522326,Westminster,77772.0,0.6956835895259229,0.3757151246213281,1.002229277196668,2,W2 3EA,Westminster,170355
3031.0,Craven Hill Gardens,1100000.0,Flat / Apartment,718.0,1.0,1.0,1.0,,London,W2 3EA,51.513018,-0.182494,1244.0,4.484728881522326,Westminster,77772.0,0.6956835895259229,0.3757151246213281,1.002229277196668,2,W2 3EA,Westminster,170355
6.0,Alfriston Road,1475000.0,House,1548.0,4.0,4.0,4.0,,London,SW11 6NW,51.457193,-0.159561,831.0,6.529905503985987,Wandsworth,27388.0,1.064716744521221,0.961196049944394,1.741720603513956,3,SW11 6NW,Wandsworth,125075
7.0,Bishops Gate,650000.0,New development,560.0,1.0,1.0,1.0, Fulham,London,SW6 3LF,51.469856,-0.210732,1214.0,7.824038646573639,Hammersmith and Fulham,24060.0,1.9125265676524736,0.2371774967244561,1.8906725680846503,5,SW6 3LF,Hammersmith and Fulham,139946
668.0,Bishops Gate,990000.0,New development,820.0,2.0,2.0,2.0,82-88 Fulham High Street,London,SW6 3LF,51.469856,-0.210732,1810.0,7.824038646573639,Hammersmith and Fulham,24060.0,1.9125265676524736,0.2371774967244561,1.8906725680846503,5,SW6 3LF,Hammersmith and Fulham,139946
764.0,Bishops Gate,970000.0,New development,810.0,2.0,2.0,2.0,,82-88 Fulham High Street,SW6 3LF,51.469856,-0.210732,862.0,7.824038646573639,Hammersmith and Fulham,24060.0,1.9125265676524736,0.2371774967244561,1.8906725680846503,5,SW6 3LF,Hammersmith and Fulham,139946
765.0,Bishops Gate,650000.0,New development,560.0,1.0,1.0,1.0,82-88 Fulham High Street,London,SW6 3LF,51.469856,-0.210732,862.0,7.824038646573639,Hammersmith and Fulham,24060.0,1.9125265676524736,0.2371774967244561,1.8906725680846503,5,SW6 3LF,Hammersmith and Fulham,139946
1024.0,Bishops Gate,649000.0,New development,560.0,1.0,1.0,1.0,82-88 Fulham High Street,London,SW6 3LF,51.469856,-0.210732,50.0,7.824038646573639,Hammersmith and Fulham,24060.0,1.9125265676524736,0.2371774967244561,1.8906725680846503,5,SW6 3LF,Hammersmith and Fulham,139946
1135.0,Bishops Gate,1045000.0,New development,810.0,2.0,2.0,2.0, Fulham High Street,Fulham,SW6 3LF,51.469856,-0.210732,1821.0,7.824038646573639,Hammersmith and Fulham,24060.0,1.9125265676524736,0.2371774967244561,1.8906725680846503,5,SW6 3LF,Hammersmith and Fulham,139946
1193.0,Bishops Gate,1050000.0,New development,817.0,2.0,2.0,2.0,82-88 Fulham High Street,London,SW6 3LF,51.469856,-0.210732,13.0,7.824038646573639,Hammersmith and Fulham,24060.0,1.9125265676524736,0.2371774967244561,1.8906725680846503,5,SW6 3LF,Hammersmith and Fulham,139946
1194.0,Bishops Gate,695000.0,New development,678.0,2.0,2.0,2.0,82-88 Bishops Gate,Fulham High Street,SW6 3LF,51.469856,-0.210732,3471.0,7.824038646573639,Hammersmith and Fulham,24060.0,1.9125265676524736,0.2371774967244561,1.8906725680846503,5,SW6 3LF,Hammersmith and Fulham,139946
1329.0,Bishops Gate,915000.0,New development,810.0,2.0,2.0,2.0,82-88 Fulham High Street,London,SW6 3LF,51.469856,-0.210732,428.0,7.824038646573639,Hammersmith and Fulham,24060.0,1.9125265676524736,0.2371774967244561,1.8906725680846503,5,SW6 3LF,Hammersmith and Fulham,139946
1352.0,Bishops Gate,2000000.0,New development,1688.0,4.0,4.0,4.0,82-88 Fulham High Street,London,SW6 3LF,51.469856,-0.210732,1423.0,7.824038646573639,Hammersmith and Fulham,24060.0,1.9125265676524736,0.2371774967244561,1.8906725680846503,5,SW6 3LF,Hammersmith and Fulham,139946
1479.0,Bishops Gate,2000000.0,New development,1693.0,4.0,4.0,4.0,82-88 Fulham High Street,London,SW6 3LF,51.469856,-0.210732,398.0,7.824038646573639,Hammersmith and Fulham,24060.0,1.9125265676524736,0.2371774967244561,1.8906725680846503,5,SW6 3LF,Hammersmith and Fulham,139946
1528.0,Bishops Gate,2100000.0,New development,1688.0,4.0,4.0,4.0,82-88 Fulham High Street,London,SW6 3LF,51.469856,-0.210732,415.0,7.824038646573639,Hammersmith and Fulham,24060.0,1.9125265676524736,0.2371774967244561,1.8906725680846503,5,SW6 3LF,Hammersmith and Fulham,139946
1545.0,Bishops Gate,1850000.0,New development,1462.0,3.0,3.0,3.0,82-88 Fulham High Street,London,SW6 3LF,51.469856,-0.210732,3514.0,7.824038646573639,Hammersmith and Fulham,24060.0,1.9125265676524736,0.2371774967244561,1.8906725680846503,5,SW6 3LF,Hammersmith and Fulham,139946
1575.0,Bishops Gate,1425000.0,New development,1063.0,2.0,2.0,2.0,82-88 Fulham High Street,London,SW6 3LF,51.469856,-0.210732,965.0,7.824038646573639,Hammersmith and Fulham,24060.0,1.9125265676524736,0.2371774967244561,1.8906725680846503,5,SW6 3LF,Hammersmith and Fulham,139946
8.0,Adam & Eve Mews,2500000.0,House,1308.0,3.0,3.0,3.0,,London,W8 6UG,51.499423,-0.194326,3474.0,5.419182219342418,Kensington and Chelsea,25843.0,0.5143175997666053,0.1915658386141717,0.9666856129823714,3,W8 6UG,Kensington and Chelsea,175958
9.0,Hornton Street,925000.0,Flat / Apartment,646.0,2.0,2.0,2.0,,London,W8 4NT,51.502446,-0.194409,3531.0,5.362682909865978,Kensington and Chelsea,25843.0,0.8370942428081654,0.2341907136201538,1.1905626144029982,2,W8 4NT,Kensington and Chelsea,175590
10.0,Drakefield Road,2400000.0,House,3392.0,6.0,6.0,6.0,,London,SW17 8RR,51.434711,-0.153833,463.0,8.722425098147962,Wandsworth,27388.0,1.5666489553744205,0.4260544983967359,3.093883983016444,3,SW17 8RR,Wandsworth,129944
116.0,Drakefield Road,2500000.0,House,3986.0,6.0,6.0,6.0,,London,SW17 8RR,51.434711,-0.153833,611.0,8.722425098147962,Wandsworth,27388.0,1.5666489553744205,0.4260544983967359,3.093883983016444,3,SW17 8RR,Wandsworth,129944
11.0,Cromwell Avenue,2500000.0,House,2974.0,6.0,6.0,6.0,Highgate,London,N6 5HQ,51.570263,-0.141795,615.0,6.918096861737914,Haringey,33042.0,0.4446902657924482,1.525091091004774,1.200385609759815,3,N6 5HQ,Haringey,75083
13.0,Grove End House,725000.0,Flat / Apartment,778.0,2.0,2.0,2.0, St. John's Wood,London,NW8 9HP,51.527952,-0.174903,2872.0,4.427130825245152,Westminster,77772.0,0.4213342891173365,0.761602107158578,1.286117436383873,2,NW8 9HP,Westminster,90241
14.0,Abercorn Mansions,750000.0,Flat / Apartment,647.0,2.0,2.0,2.0,17 Abercorn Place,London,NW8 9DY,51.532649,-0.180857,7685.0,5.040240995283848,Westminster,77772.0,0.4267096533275087,0.4617814816295403,0.6943560340133985,2,NW8 9DY,Westminster,90218
15.0,Chester Terrace,12500000.0,House,4596.0,6.0,6.0,6.0,Regents Park,London,NW1 4ND,51.529081,-0.145235,378.0,2.849615914023107,Camden,39733.0,0.6740434885358648,0.5910920318437035,0.2186665322905607,3,NW1 4ND,Camden,78517
2574.0,Chester Terrace,6500000.0,House,4185.0,6.0,6.0,6.0,Regent's Park,London,NW1 4ND,51.529081,-0.145235,2882.0,2.849615914023107,Camden,39733.0,0.6740434885358648,0.5910920318437035,0.2186665322905607,3,NW1 4ND,Camden,78517
16.0,Cambridge Park,1450000.0,Flat / Apartment,1702.0,3.0,3.0,3.0,,Twickenham,TW1 2PF,51.453519,-0.312232,2.0,14.872357098790031,Richmond upon Thames,13431.0,2.400112223292482,1.3189137258453183,1.7491381799276662,2,TW1 2PF,Richmond upon Thames,143965
18.0,Elsworthy Rise,2275000.0,New development,1173.0,3.0,3.0,3.0,Primrose Hill,London,NW3 3DS,51.541383,-0.163738,2348.0,4.725689041286797,Camden,39733.0,0.973965501961914,0.7560196203113383,0.6654824323822338,5,NW3 3DS,Camden,84990
2752.0,Elsworthy Rise,1050000.0,New development,612.0,1.0,1.0,1.0,Primrose Hill,London,NW3 3DS,51.541383,-0.163738,3025.0,4.725689041286797,Camden,39733.0,0.973965501961914,0.7560196203113383,0.6654824323822338,5,NW3 3DS,Camden,84990
3046.0,Elsworthy Rise,1050000.0,New development,546.0,1.0,1.0,1.0,Primrose Hill,London,NW3 3DS,51.541383,-0.163738,8581.0,4.725689041286797,Camden,39733.0,0.973965501961914,0.7560196203113383,0.6654824323822338,5,NW3 3DS,Camden,84990
3191.0,Elsworthy Road,7250000.0,New development,3185.0,4.0,4.0,4.0,Primrose Hill,London,NW3 3DS,51.541383,-0.163738,2331.0,4.725689041286797,Camden,39733.0,0.973965501961914,0.7560196203113383,0.6654824323822338,5,NW3 3DS,Camden,84990
19.0,St. Anns Road,1075000.0,Duplex,865.0,2.0,2.0,2.0,,Holland Park,W11 4SR,51.508224,-0.215291,1080.0,6.750681562385766,Kensington and Chelsea,25843.0,1.6117925854754638,0.4557616012999572,0.5060138813686061,1,W11 4SR,Kensington and Chelsea,159542
20.0,Clapham Road,500000.0,Flat / Apartment,597.0,1.0,1.0,1.0,,London,SW9 9BT,51.466565,-0.128334,8519.0,4.869696870107067,Lambeth,36982.0,2.423159769920807,0.741760664026467,1.9780242555766867,2,SW9 9BT,Lambeth,143122
21.0,Devonshire Close,5500000.0,House,3016.0,4.0,4.0,4.0,Marylebone,London,W1G 7BA,51.521279,-0.14735,4836.0,2.395328845070153,Westminster,77772.0,0.2447801973217884,0.2538435255083458,0.164021024568185,3,W1G 7BA,Westminster,163944
22.0,The Draycott,8950000.0,New development,3154.0,4.0,4.0,4.0,10 Draycott Avenue,London,SW3 3AA,51.491704,-0.162728,3164.0,3.699932156285727,Kensington and Chelsea,25843.0,0.6237964992004456,0.433155328634379,1.021902888084218,5,SW3 3AA,Kensington and Chelsea,137480
23.0,Campden Hill Gardens,1175000.0,Flat / Apartment,765.0,2.0,2.0,2.0,,London,W8 7AX,51.507579,-0.199595,4029.0,5.664242745870625,Kensington and Chelsea,25843.0,1.4927138327259526,0.2729375957093985,0.6629682571200592,2,W8 7AX,Kensington and Chelsea,175986
2390.0,Campden Hill Gardens,775000.0,Flat / Apartment,476.0,1.0,1.0,1.0,,London,W8 7AX,51.507579,-0.199595,4697.0,5.664242745870625,Kensington and Chelsea,25843.0,1.4927138327259526,0.2729375957093985,0.6629682571200592,2,W8 7AX,Kensington and Chelsea,175986
24.0,College Cross,550000.0,Flat / Apartment,479.0,1.0,1.0,1.0,Islington,London,N1 1PT,51.541813,-0.105358,2950.0,3.6626982976481433,Islington,31022.0,1.1947421704254717,0.4873838848455563,0.8683107579401749,2,N1 1PT,Islington,60882
1243.0,College Cross,2395000.0,House,2212.0,4.0,4.0,4.0,Islington,London,N1 1PT,51.541813,-0.105358,419.0,3.6626982976481433,Islington,31022.0,1.1947421704254717,0.4873838848455563,0.8683107579401749,3,N1 1PT,Islington,60882
25.0,St Mary's Grove,1300000.0,House,1101.0,3.0,3.0,3.0, Islington,London,N1 2NT,51.545336,-0.098001,1673.0,4.185506550674496,Islington,31022.0,0.7875661035615265,0.4177734838215576,0.2995637057088986,3,N1 2NT,Islington,61173
26.0,Goldhurst Terrace,800000.0,Flat / Apartment,1177.0,3.0,3.0,3.0,South Hampstead,London,NW6 3HR,51.541806,-0.183377,1345.0,5.758254203796121,Camden,39733.0,0.7814144145500472,0.6217445320179621,0.2780996834574124,2,NW6 3HR,Camden,87862
27.0,Upper Park Road,3500000.0,House,2331.0,4.0,4.0,4.0,Belsize Park,London,NW3 2UP,51.549288,-0.160867,339.0,5.2961863357497965,Camden,39733.0,0.5948889086493228,0.7650125201021787,0.8958547466870374,3,NW3 2UP,Camden,84927
800.0,Upper Park Road,5250000.0,House,3782.0,8.0,8.0,8.0,Belsize Park,London,NW3 2UP,51.549288,-0.160867,5171.0,5.2961863357497965,Camden,39733.0,0.5948889086493228,0.7650125201021787,0.8958547466870374,3,NW3 2UP,Camden,84927
29.0,Roymount Court,400000.0,Flat / Apartment,805.0,2.0,2.0,2.0, Surbiton,Surrey,KT6 6NW,51.388688,-0.306375,808.0,18.790398372952847,Kingston upon Thames,13398.0,3.35393772418052,7.915375230306786,1.734826649862609,2,KT6 6NW,Kingston upon Thames,59767
30.0,Wetherby House,1100000.0,Flat / Apartment,582.0,2.0,2.0,2.0,20-21 Wetherby Gardens,London,SW5 0JP,51.492359,-0.184133,624.0,4.98227903020428,Kensington and Chelsea,25843.0,0.6009616603734517,0.2444154003875571,0.2679086606201494,2,SW5 0JP,Kensington and Chelsea,139111
31.0,Fernside Road,1200000.0,House,1494.0,4.0,4.0,4.0,,London,SW12 8LJ,51.44602,-0.159813,677.0,7.671852307218761,Wandsworth,27388.0,2.128052944639022,1.0913894003249098,1.9827599637283948,3,SW12 8LJ,Wandsworth,125585
719.0,Fernside Road,1350000.0,House,1805.0,4.0,4.0,4.0,,London,SW12 8LJ,51.44602,-0.159813,1220.0,7.671852307218761,Wandsworth,27388.0,2.128052944639022,1.0913894003249098,1.9827599637283948,3,SW12 8LJ,Wandsworth,125585
32.0,Telford Avenue,1250000.0,House,1507.0,4.0,4.0,4.0,,London,SW2 4XF,51.44192,-0.129785,659.0,7.6029104500903,Lambeth,36982.0,3.4159507132309805,1.725695563342981,3.1016389836591656,3,SW2 4XF,Lambeth,136490
33.0,Telford Avenue,695000.0,Flat / Apartment,945.0,3.0,3.0,3.0,,London,SW2 4XQ,51.441451,-0.134236,685.0,7.693760915923159,Lambeth,36982.0,3.120815368935171,1.5543578141901429,3.408292801259248,2,SW2 4XQ,Lambeth,136497
34.0,Stile Hall Gardens,1735000.0,House,2118.0,4.0,4.0,4.0,Chiswick,London,W4 3BS,51.489456,-0.284574,773.0,11.781562017693608,Hounslow,28088.0,3.29019764541459,0.8232730780259737,1.5634497896266928,3,W4 3BS,Hounslow,172585
35.0,Wavendon Avenue,2350000.0,House,2297.0,5.0,5.0,5.0,Chiswick,London,W4 4NR,51.48928,-0.264689,2543.0,10.434311384501378,Hounslow,28088.0,3.0250916761576763,1.8340966985708904,0.9372277322143288,3,W4 4NR,Hounslow,172907
1207.0,Wavendon Avenue,2250000.0,House,2389.0,5.0,5.0,5.0,Chiswick,London,W4 4NR,51.48928,-0.264689,809.0,10.434311384501378,Hounslow,28088.0,3.0250916761576763,1.8340966985708904,0.9372277322143288,3,W4 4NR,Hounslow,172907
36.0,Duke Road,1200000.0,House,1351.0,4.0,4.0,4.0,Chiswick,London,W4 2BA,51.491513,-0.259404,677.0,10.022806136412964,Hounslow,28088.0,2.696064831287865,1.6598593405514792,0.9346878673179702,3,W4 2BA,Hounslow,172349
37.0,Hobury Street,975000.0,Flat / Apartment,749.0,2.0,2.0,2.0,,London,SW10 0JB,51.483297,-0.17961,1469.0,5.195063324582401,Kensington and Chelsea,25843.0,0.2271162357096552,1.2602840090632552,0.911006501778916,2,SW10 0JB,Kensington and Chelsea,123499
38.0,Maltings Close,850000.0,House,1177.0,3.0,3.0,3.0,Barnes,London,SW13 0NL,51.472642,-0.252404,1512.0,10.20643057013985,Richmond upon Thames,13431.0,2.677655123821853,2.6514924121791603,0.8401432153739626,3,SW13 0NL,Richmond upon Thames,126019
39.0,Munster Road,1599950.0,House,1884.0,4.0,4.0,4.0,Fulham,London,SW6 5RF,51.475265,-0.208716,1891.0,7.377886859141866,Hammersmith and Fulham,24060.0,1.5265591760770485,0.8046801074648351,1.5815143839932446,3,SW6 5RF,Hammersmith and Fulham,140358
40.0,Khyber Road,925000.0,Flat / Apartment,1321.0,2.0,2.0,2.0,,London,SW11 2PZ,51.469218,-0.170034,2439.0,5.785034876021981,Wandsworth,27388.0,0.583902550013177,2.4069573965392763,0.9263749334674652,2,SW11 2PZ,Wandsworth,124191
41.0,Coles Court,650000.0,Flat / Apartment,869.0,3.0,3.0,3.0,,Battersea,SW11 3DU,51.473189,-0.172683,1911.0,5.570104695264018,Wandsworth,27388.0,1.037746728158779,2.329047390754812,0.5123783831485826,2,SW11 3DU,Wandsworth,124311
42.0,Prince Of Wales Mansions,550000.0,Flat / Apartment,670.0,1.0,1.0,1.0,,London,SW11 4BG,51.477166,-0.149872,2035.0,4.25518432402038,Wandsworth,27388.0,1.8359017514678224,1.742197597608181,1.1654411696971287,2,SW11 4BG,Wandsworth,124536
697.0,Prince of Wales Mansions,699950.0,Flat / Apartment,816.0,2.0,2.0,2.0,Prince of Wales Drive,London,SW11 4BG,51.477166,-0.149872,794.0,4.25518432402038,Wandsworth,27388.0,1.8359017514678224,1.742197597608181,1.1654411696971287,2,SW11 4BG,Wandsworth,124536
43.0,Old Battersea House,9975000.0,House,10100.0,10.0,10.0,10.0, Battersea,London,SW11 3LD,51.474315,-0.176156,2461.0,5.648565541853259,Wandsworth,27388.0,1.2187155374266263,2.2092148361745747,0.5437339494872343,3,SW11 3LD,Wandsworth,124385
44.0,Kersley Street,1850000.0,House,1910.0,5.0,5.0,5.0,,London,SW11 4PT,51.472794,-0.164089,1246.0,5.216973003922592,Wandsworth,27388.0,1.0740035140499338,2.227970409134139,0.6813118410499782,3,SW11 4PT,Wandsworth,124655
2683.0,Kersley Street,1950000.0,House,2090.0,4.0,4.0,4.0,,London,SW11 4PT,51.472794,-0.164089,1726.0,5.216973003922592,Wandsworth,27388.0,1.0740035140499338,2.227970409134139,0.6813118410499782,3,SW11 4PT,Wandsworth,124655
45.0,Battersea Bridge Road,525000.0,New development,590.0,1.0,1.0,1.0,,London,SW11 3AU,51.478204,-0.169535,7183.0,5.017207225994188,Wandsworth,27388.0,0.9503249571643372,1.793608000147391,0.0899289450239771,5,SW11 3AU,Wandsworth,124276
46.0,Larkhall Rise,2200000.0,House,2239.0,4.0,4.0,4.0,,London,SW4 6HS,51.468035,-0.137183,1893.0,4.83912647796248,Lambeth,36982.0,2.3501456463051227,1.115237494852902,2.2278165310330835,3,SW4 6HS,Lambeth,138401
48.0,Carlisle Mansions,1999999.0,Flat / Apartment,1608.0,3.0,3.0,3.0, Victoria,London,SW1P 1EZ,51.494861,-0.14008,7337.0,2.2622247869429826,Westminster,77772.0,1.5566140913201816,0.303615876966096,1.016893564318201,2,SW1P 1EZ,Westminster,133444
49.0,Park Close,725000.0,House,884.0,3.0,3.0,3.0,South Hackney,London,E9 7LF,51.537888,-0.04862,627.0,5.741857619923989,Hackney,35196.0,0.6485785400450721,1.7688644760928434,1.782056861907498,3,E9 7LF,Hackney,33574
50.0,Century Court,1750000.0,Flat / Apartment,1232.0,2.0,2.0,2.0,Grove End Road,London,NW8 9LD,51.527983,-0.174008,701.0,4.373474527150482,Westminster,77772.0,0.3600224649630236,0.7557812091634387,1.3373113600445978,2,NW8 9LD,Westminster,90260
51.0,Eaton Square,5250000.0,Flat / Apartment,2299.0,3.0,3.0,3.0,,London,SW1W 9DF,51.495764,-0.150546,2334.0,2.7458097167152444,Westminster,77772.0,1.5827934665754706,0.3482938796165457,0.9112875109048844,2,SW1W 9DF,Westminster,134968
1038.0,Eaton Square,2950000.0,Flat / Apartment,1181.0,2.0,2.0,2.0,Belgravia,London,SW1W 9DF,51.495764,-0.150546,342.0,2.7458097167152444,Westminster,77772.0,1.5827934665754706,0.3482938796165457,0.9112875109048844,2,SW1W 9DF,Westminster,134968
1143.0,Eaton Square,3250000.0,Flat / Apartment,1509.0,1.0,1.0,1.0,Belgravia,London,SW1W 9DF,51.495764,-0.150546,3857.0,2.7458097167152444,Westminster,77772.0,1.5827934665754706,0.3482938796165457,0.9112875109048844,2,SW1W 9DF,Westminster,134968
53.0,"The oTTo, Hackney",490000.0,New development,570.0,1.0,1.0,1.0, Downs Road,Clapton,E5 8DS,51.555891,-0.057719,809.0,6.616098721069052,Hackney,35196.0,1.044047582212409,3.225294234686614,0.6617922882144114,5,E5 8DS,Hackney,30459
131.0,The oTTo,785000.0,New development,1173.0,2.0,2.0,2.0, The Otto Buildings,Downs Road,E5 8DS,51.555891,-0.057719,918.0,6.616098721069052,Hackney,35196.0,1.044047582212409,3.225294234686614,0.6617922882144114,5,E5 8DS,Hackney,30459
193.0,"The oTTo, Hackney",800000.0,New development,1119.0,2.0,2.0,2.0, Clapton,E5 8DE,E5 8DS,51.555891,-0.057719,843.0,6.616098721069052,Hackney,35196.0,1.044047582212409,3.225294234686614,0.6617922882144114,5,E5 8DS,Hackney,30459
1481.0,"The oTTo, Hackney",995000.0,New development,1561.0,3.0,3.0,3.0, Clapton,E5 8DE,E5 8DS,51.555891,-0.057719,268.0,6.616098721069052,Hackney,35196.0,1.044047582212409,3.225294234686614,0.6617922882144114,5,E5 8DS,Hackney,30459
54.0,Francis House,3350000.0,Penthouse,2185.0,3.0,3.0,3.0,Coleridge Gardens,London,SW10 0RP,51.48049,-0.187125,2023.0,5.802188286014517,Kensington and Chelsea,25843.0,0.597327881596909,1.2658683945325273,1.180198712136154,6,SW10 0RP,Kensington and Chelsea,123583
55.0,Wendle Square,1000000.0,Flat / Apartment,1228.0,3.0,3.0,3.0,Battersea,London,SW11 4SS,51.475766,-0.165539,3623.0,5.025085926234434,Wandsworth,27388.0,1.280393374735647,1.938190419049036,0.3841639433972149,2,SW11 4SS,Wandsworth,124699
56.0,Rectory Road,2350000.0,House,2511.0,4.0,4.0,4.0,Barnes,London,SW13 0DX,51.473039,-0.240467,1112.0,9.435366966757243,Richmond upon Thames,13431.0,2.033931211412032,2.2589796390662014,1.103949958383884,3,SW13 0DX,Richmond upon Thames,125948
57.0,Thames Quay,2095000.0,Flat / Apartment,1528.0,3.0,3.0,3.0,Chelsea Harbour,London,SW10 0UY,51.47551,-0.180223,431.0,5.764523670679107,Hammersmith and Fulham,24060.0,1.035041456817777,1.984789311524364,0.6417801461489236,2,SW10 0UY,Hammersmith and Fulham,123625
1600.0,Thames Quay,699950.0,Flat / Apartment,645.0,1.0,1.0,1.0,Chelsea Harbour,Chelsea,SW10 0UY,51.47551,-0.180223,2331.0,5.764523670679107,Hammersmith and Fulham,24060.0,1.035041456817777,1.984789311524364,0.6417801461489236,2,SW10 0UY,Hammersmith and Fulham,123625
3391.0,Thames Quay,2250000.0,Flat / Apartment,1515.0,3.0,3.0,3.0, Chelsea,London,SW10 0UY,51.47551,-0.180223,,5.764523670679107,Hammersmith and Fulham,24060.0,1.035041456817777,1.984789311524364,0.6417801461489236,2,SW10 0UY,Hammersmith and Fulham,123625
58.0,Prince Edward Mansions,1250000.0,Flat / Apartment,811.0,2.0,2.0,2.0, Bayswater,London,W2 4WA,51.51198,-0.193412,386.0,5.234301104534683,Westminster,77772.0,1.4223307930119846,0.3724138966567755,0.2846229297886387,2,W2 4WA,Westminster,170651
59.0,Harbut Road,735000.0,Flat / Apartment,969.0,2.0,2.0,2.0,,London,SW11 2RE,51.462477,-0.177185,1494.0,6.681717250842373,Wandsworth,27388.0,0.5019836826359549,2.293069077679412,0.9580257976513814,2,SW11 2RE,Wandsworth,124213
60.0,Chasefield Road,875000.0,House,1132.0,4.0,4.0,4.0,Tooting,London,SW17 8LW,51.429083,-0.161885,28.0,9.488768846008576,Wandsworth,27388.0,0.7951291364929395,0.4638721860426467,2.2541236559997806,3,SW17 8LW,Wandsworth,129885
61.0,Fernwood Avenue,1250000.0,House,2498.0,6.0,6.0,6.0,,London,SW16 1RD,51.42894,-0.13348,1768.0,9.066764246512257,Lambeth,36982.0,2.750418278861386,1.976792827653591,3.451794089095096,3,SW16 1RD,Lambeth,128039
62.0,Havilland Mews,595000.0,Flat / Apartment,643.0,2.0,2.0,2.0,,London,W12 8BG,51.505374,-0.234394,7749.0,8.090167912217693,Hammersmith and Fulham,24060.0,1.2140767300450523,1.0973437253229226,0.3401172488037719,2,W12 8BG,Hammersmith and Fulham,160106
64.0,Gatehill Road,2595000.0,House,4858.0,6.0,6.0,6.0,Northwood,Middlesex,HA6 3QF,51.610893,-0.412107,1.0,23.28254448710096,Hillingdon,28793.0,7.395232677907495,3.961722629325788,6.696845528252605,3,HA6 3QF,Hillingdon,48594
65.0,St. Davids Mews,820000.0,House,974.0,3.0,3.0,3.0,Morgan Street,London,E3 5AZ,51.526918,-0.03574,2692.0,6.022902667542069,Tower Hamlets,35904.0,0.3952442840341799,0.2563123904310336,2.0121679466938924,3,E3 5AZ,Tower Hamlets,29009
66.0,Chester Close South,830000.0,Flat / Apartment,850.0,2.0,2.0,2.0,Regent's Park,London,NW1 4JG,51.528148,-0.144966,573.0,2.759945200677691,Camden,39733.0,0.5688067552431001,0.4856715516897569,0.3138501486699487,2,NW1 4JG,Camden,78502
67.0,Lady Somerset Road,500000.0,Flat / Apartment,458.0,1.0,1.0,1.0,Kentish Town,London,NW5 1TX,51.554605,-0.142765,991.0,5.26391508913405,Camden,39733.0,1.379372007383143,0.4013034858004256,0.3783467833409089,2,NW5 1TX,Camden,86792
68.0,Nicholas Way,2500000.0,House,5999.0,7.0,7.0,7.0,Northwood,Middlesex,HA6 2TR,51.604609,-0.438377,8716.0,24.58710984421004,Hillingdon,28793.0,8.579976283670089,4.2537089222313575,7.873197718949815,3,HA6 2TR,Hillingdon,48481
1324.0,Nicholas Way,2995000.0,House,5517.0,7.0,7.0,7.0,Northwood,Middlesex,HA6 2TR,51.604609,-0.438377,447.0,24.58710984421004,Hillingdon,28793.0,8.579976283670089,4.2537089222313575,7.873197718949815,3,HA6 2TR,Hillingdon,48481
69.0,Queens Grove,7500000.0,House,3851.0,6.0,6.0,6.0,St John's Wood,London,NW8 6EN,51.537354,-0.174642,8442.0,4.9757396545447845,Westminster,77772.0,0.4669149397414424,0.2898800740078646,0.5247060214426245,3,NW8 6EN,Westminster,89728
70.0,Enmore Road,749950.0,Flat / Apartment,1382.0,3.0,3.0,3.0,Putney,London,SW15 6LL,51.460549,-0.225573,615.0,9.265265141961164,Wandsworth,27388.0,1.2661064743456576,1.4235158583857186,2.0065991691708507,2,SW15 6LL,Wandsworth,127740
71.0,The Chase,480000.0,Flat / Apartment,448.0,1.0,1.0,1.0,,London,SW4 0NP,51.464061,-0.146861,44.0,5.473834717862196,Lambeth,36982.0,1.6338604574107105,1.258706854486182,2.213121687697352,2,SW4 0NP,Lambeth,138247
72.0,Weymouth Mews,3500000.0,House,1763.0,4.0,4.0,4.0,Marylebone,London,W1G 7EB,51.520075,-0.146851,886.0,2.296938586411353,Westminster,77772.0,0.2020545341216822,0.3856238478739177,0.116542533126634,3,W1G 7EB,Westminster,163969
73.0,Portland Place,2100000.0,Flat / Apartment,1208.0,3.0,3.0,3.0,Marylebone,London,W1B 1NX,51.522457,-0.145616,294.0,2.369199502494267,Westminster,77772.0,0.1249109096908641,0.148810334481713,0.2168754324834981,2,W1B 1NX,Westminster,161860
2622.0,Portland Place,1050000.0,Flat / Apartment,631.0,2.0,2.0,2.0,Marylebone,London,W1B 1NX,51.522457,-0.145616,1117.0,2.369199502494267,Westminster,77772.0,0.1249109096908641,0.148810334481713,0.2168754324834981,2,W1B 1NX,Westminster,161860
74.0,Ternary Place,650000.0,New development,1023.0,2.0,2.0,2.0, Ealing,London,W5 3HJ,51.516077,-0.290845,9740.0,12.01254769379322,Ealing,35050.269230769234,3.744939694548274,0.7110342791027049,0.5582529094556956,5,W5 3HJ,Ealing,173649
920.0,Ternary Place,600000.0,New development,870.0,1.0,1.0,1.0, Ealing,London,W5 3HJ,51.516077,-0.290845,3881.0,12.01254769379322,Ealing,35050.269230769234,3.744939694548274,0.7110342791027049,0.5582529094556956,5,W5 3HJ,Ealing,173649
1066.0,Ternary Place,595000.0,New development,807.0,2.0,2.0,2.0,North Ealing,London,W5 3HJ,51.516077,-0.290845,2570.0,12.01254769379322,Ealing,35050.269230769234,3.744939694548274,0.7110342791027049,0.5582529094556956,5,W5 3HJ,Ealing,173649
1085.0,Ternary Place,645000.0,New development,904.0,2.0,2.0,2.0, Ealing,London,W5 3HJ,51.516077,-0.290845,474.0,12.01254769379322,Ealing,35050.269230769234,3.744939694548274,0.7110342791027049,0.5582529094556956,5,W5 3HJ,Ealing,173649
1512.0,Ternary Place,630000.0,New development,904.0,2.0,2.0,2.0, Ealing,London,W5 3HJ,51.516077,-0.290845,406.0,12.01254769379322,Ealing,35050.269230769234,3.744939694548274,0.7110342791027049,0.5582529094556956,5,W5 3HJ,Ealing,173649
76.0,Lysias Road,1300000.0,House,1890.0,5.0,5.0,5.0,,London,SW12 8BW,51.450663,-0.151462,6651.0,6.982716754492231,Wandsworth,27388.0,1.9800286140088263,0.3144188591353995,2.340547481757638,3,SW12 8BW,Wandsworth,125511
1582.0,Lysias Road,1295000.0,House,1873.0,4.0,4.0,4.0,,London,SW12 8BW,51.450663,-0.151462,761.0,6.982716754492231,Wandsworth,27388.0,1.9800286140088263,0.3144188591353995,2.340547481757638,3,SW12 8BW,Wandsworth,125511
77.0,Prince Henry Road,625000.0,House,1348.0,4.0,4.0,4.0,Kidbrooke,London,SE7 8PP,51.476145,0.040156,826.0,11.6131695929837,Greenwich,30468.0,0.7938250551829609,3.704142388258128,1.5458829789003066,3,SE7 8PP,Greenwich,117684
78.0,Kirby Street,625000.0,Flat / Apartment,540.0,1.0,1.0,1.0,Clerkenwell,London,EC1N 8TE,51.519926,-0.107495,2757.0,1.3394488285935475,Camden,39733.0,0.5479006483546007,0.1689174264635653,0.3238018064818193,2,EC1N 8TE,Camden,34239
3104.0,Kirby Street,950000.0,Flat / Apartment,870.0,2.0,2.0,2.0,Clerkenwell,London,EC1N 8TE,51.519926,-0.107495,1030.0,1.3394488285935475,Camden,39733.0,0.5479006483546007,0.1689174264635653,0.3238018064818193,2,EC1N 8TE,Camden,34239
79.0,Great Peter Street,1100000.0,New development,791.0,2.0,2.0,2.0,Westminster,London,SW1P 2BN,51.49674,-0.131561,2894.0,1.7340726481406932,Westminster,77772.0,0.9302843000862878,0.3577280936903425,0.9951992626922754,5,SW1P 2BN,Westminster,133565
80.0,Walton Street,5950000.0,House,2646.0,4.0,4.0,4.0,,London,SW3 1RE,51.497549,-0.163425,1715.0,3.433009332634576,Kensington and Chelsea,25843.0,1.0258753339053994,0.2957010377226826,0.956061704495364,3,SW3 1RE,Kensington and Chelsea,137326
81.0,Chatto Road,1325000.0,House,1375.0,4.0,4.0,4.0,,London,SW11 6LL,51.455713,-0.160398,795.0,6.703378910566718,Wandsworth,27388.0,1.1511629786433295,0.9354028675262877,1.6689825649214722,3,SW11 6LL,Wandsworth,125054
82.0,Redcliffe Square,1250000.0,Flat / Apartment,1068.0,2.0,2.0,2.0,,London,SW10 9JY,51.488621,-0.188977,995.0,5.460418420828651,Kensington and Chelsea,25843.0,0.653257364413831,0.4621280105802365,0.7942095688776435,2,SW10 9JY,Kensington and Chelsea,123744
803.0,Redcliffe Square,2000000.0,Flat / Apartment,1072.0,2.0,2.0,2.0,,London,SW10 9JY,51.488621,-0.188977,2549.0,5.460418420828651,Kensington and Chelsea,25843.0,0.653257364413831,0.4621280105802365,0.7942095688776435,2,SW10 9JY,Kensington and Chelsea,123744
83.0,Elm Park Lane,2300000.0,House,1119.0,3.0,3.0,3.0,,London,SW3 6DB,51.486694,-0.17779,3115.0,4.881800849320682,Kensington and Chelsea,25843.0,0.3578981983802132,0.8726866971580123,0.9173288921126012,3,SW3 6DB,Kensington and Chelsea,138016
84.0,Fassett Square,1500000.0,House,1811.0,4.0,4.0,4.0,Hackney,London,E8 1DQ,51.546854,-0.065457,39.0,5.502585169898092,Hackney,35196.0,1.42876736510388,2.6679731434359986,0.490959461592879,3,E8 1DQ,Hackney,32327
2996.0,Fassett Square,1450000.0,House,1727.0,4.0,4.0,4.0,,London,E8 1DQ,51.546854,-0.065457,8563.0,5.502585169898092,Hackney,35196.0,1.42876736510388,2.6679731434359986,0.490959461592879,3,E8 1DQ,Hackney,32327
85.0,Haverhill Road,1350000.0,House,1603.0,5.0,5.0,5.0,,London,SW12 0HD,51.443807,-0.14158,1800.0,7.528425992200297,Lambeth,36982.0,2.854598818145186,1.0615429042371385,3.2287678902270205,3,SW12 0HD,Lambeth,125379
86.0,Duckman Tower,799995.0,Flat / Apartment,942.0,3.0,3.0,3.0, Canary Wharf,London,E14 9BL,51.498465,-0.019645,7513.0,6.952261081424807,Tower Hamlets,35904.0,3.0788386782258543,0.573425604784117,0.8052237022423782,2,E14 9BL,Tower Hamlets,22691
893.0,Duckman Tower,825000.0,Flat / Apartment,1026.0,3.0,3.0,3.0, Canary Wharf,London,E14 9BL,51.498465,-0.019645,3241.0,6.952261081424807,Tower Hamlets,35904.0,3.0788386782258543,0.573425604784117,0.8052237022423782,2,E14 9BL,Tower Hamlets,22691
87.0,St. Stephens Crescent,795000.0,Flat / Apartment,495.0,1.0,1.0,1.0,,London,W2 5QT,51.518069,-0.194612,386.0,5.389813748481497,Westminster,77772.0,1.3948295788229024,0.8021316448910875,0.5543313653778877,2,W2 5QT,Westminster,170773
88.0,West Grove,525000.0,House,829.0,2.0,2.0,2.0,Woodford Green,Essex,IG8 7NP,51.610434,0.04161,1668.0,15.743499998279765,Redbridge,25468.0,4.536367092114234,5.246770376446987,1.309272223876528,3,IG8 7NP,Redbridge,56052
89.0,Ackmar Road,2595000.0,House,2120.0,5.0,5.0,5.0,Fulham,London,SW6 4UP,51.474853,-0.199444,1644.0,6.8627298174624,Hammersmith and Fulham,24060.0,1.6428373901635611,1.006363431624324,1.2248327187017722,3,SW6 4UP,Hammersmith and Fulham,140239
90.0,Romney House,820000.0,Flat / Apartment,631.0,2.0,2.0,2.0, Westminster,London,SW1P 3DS,51.495972,-0.128538,807.0,1.7074276501664505,Westminster,77772.0,0.7900753004642748,0.5476217283850171,0.7751957296175283,2,SW1P 3DS,Westminster,133714
91.0,Seymour Gardens,1200000.0,House,2108.0,4.0,4.0,4.0,Surbiton,Surrey,KT5 8QE,51.394237,-0.292106,920.0,17.658234266214915,Kingston upon Thames,13398.0,2.368967878831333,6.777407198562586,2.061873138915636,3,KT5 8QE,Kingston upon Thames,59166
92.0,Sycamore Gardens,680000.0,Flat / Apartment,705.0,2.0,2.0,2.0,,London,W6 0AP,51.50022,-0.230003,987.0,7.844045952822967,Hammersmith and Fulham,24060.0,1.5001493488437705,0.7520034194909252,0.6103853367023901,2,W6 0AP,Hammersmith and Fulham,174211
93.0,Quarrendon Street,2300000.0,House,1956.0,3.0,3.0,3.0,,London,SW6 3SU,51.472732,-0.195918,3151.0,6.803324751881186,Hammersmith and Fulham,24060.0,1.6545172438356734,1.0461617046303875,0.9086556306415022,3,SW6 3SU,Hammersmith and Fulham,140021
94.0,Meredyth Road,2300000.0,House,2083.0,5.0,5.0,5.0,Barnes,London,SW13 0DS,51.473549,-0.240922,3144.0,9.439374010351152,Richmond upon Thames,13431.0,2.0126288132447567,2.304078178240803,1.039908444556268,3,SW13 0DS,Richmond upon Thames,125945
783.0,Meredyth Road,1950000.0,House,2150.0,4.0,4.0,4.0,Barnes,London,SW13 0DS,51.473549,-0.240922,2443.0,9.439374010351152,Richmond upon Thames,13431.0,2.0126288132447567,2.304078178240803,1.039908444556268,3,SW13 0DS,Richmond upon Thames,125945
895.0,Meredyth Road,2175000.0,House,2108.0,5.0,5.0,5.0,Barnes,London,SW13 0DS,51.473549,-0.240922,567.0,9.439374010351152,Richmond upon Thames,13431.0,2.0126288132447567,2.304078178240803,1.039908444556268,3,SW13 0DS,Richmond upon Thames,125945
95.0,Baronsmead Road,4000000.0,House,3714.0,5.0,5.0,5.0,Barnes,London,SW13 9RR,51.477334,-0.240163,483.0,9.218112785153762,Richmond upon Thames,13431.0,1.685050819511711,1.891523748379484,0.685993084834378,3,SW13 9RR,Richmond upon Thames,126272
2023.0,Baronsmead Road,3250000.0,House,3179.0,6.0,6.0,6.0,Barnes,London,SW13 9RR,51.477334,-0.240163,713.0,9.218112785153762,Richmond upon Thames,13431.0,1.685050819511711,1.891523748379484,0.685993084834378,3,SW13 9RR,Richmond upon Thames,126272
96.0,Sisters Avenue,500000.0,Flat / Apartment,516.0,2.0,2.0,2.0,,London,SW11 5SQ,51.463348,-0.159735,1069.0,5.9288562321006255,Wandsworth,27388.0,0.7424305327108474,1.4506665540179458,1.740994810972019,2,SW11 5SQ,Wandsworth,124904
2373.0,Sisters Avenue,500000.0,Flat / Apartment,524.0,2.0,2.0,2.0,,London,SW11 5SQ,51.463348,-0.159735,3223.0,5.9288562321006255,Wandsworth,27388.0,0.7424305327108474,1.4506665540179458,1.740994810972019,2,SW11 5SQ,Wandsworth,124904
97.0,Warrington Gardens,1275000.0,Flat / Apartment,1185.0,3.0,3.0,3.0,Little Venice,London,W9 2PZ,51.523802,-0.184342,761.0,4.853120254710659,Westminster,77772.0,0.964631872783486,0.6807806303500429,0.6156112635479984,2,W9 2PZ,Westminster,176544
98.0,Pembroke Villas,4500000.0,House,2972.0,3.0,3.0,3.0,,London,W8 6PG,51.49569,-0.198925,2069.0,5.830100778471536,Kensington and Chelsea,25843.0,0.5155259213007757,0.568147016992591,1.1303395588250555,3,W8 6PG,Kensington and Chelsea,175904
99.0,North End Road,1750000.0,House,2125.0,4.0,4.0,4.0,Hampstead,London,NW11 7SY,51.569925,-0.187407,8181.0,8.232786849366882,Barnet,32296.0,2.3479304774893865,2.4693255205317453,2.7362414485994835,3,NW11 7SY,Barnet,81793
100.0,Heath Hurst Road,2600000.0,House,2350.0,4.0,4.0,4.0,Hampstead,London,NW3 2RU,51.554862,-0.16771,479.0,6.075989954099176,Camden,39733.0,0.1880935168982341,1.2331796868973155,1.150463588551763,3,NW3 2RU,Camden,84891
101.0,Tercelet Terrace,3450000.0,House,2354.0,4.0,4.0,4.0, Hampstead,London,NW3 7LW,51.556608,-0.18283,1778.0,6.872070083482165,Camden,39733.0,1.1973990471398466,1.0756316594565392,1.5263571397956732,3,NW3 7LW,Camden,85743
102.0,Kersley Street,2350000.0,House,2183.0,5.0,5.0,5.0,,London,SW11 4PR,51.473034,-0.164468,837.0,5.212109489321256,Wandsworth,27388.0,1.088255766905014,2.208429968402143,0.6439890478218285,3,SW11 4PR,Wandsworth,124653
373.0,Kersley Street,3150000.0,House,2809.0,5.0,5.0,5.0,Battersea,London,SW11 4PR,51.473034,-0.164468,2261.0,5.212109489321256,Wandsworth,27388.0,1.088255766905014,2.208429968402143,0.6439890478218285,3,SW11 4PR,Wandsworth,124653
103.0,Buckingham Gate,2375000.0,Flat / Apartment,1218.0,2.0,2.0,2.0,St. James's,London,SW1E 6LB,51.499607,-0.140381,3171.0,1.922912391201813,Westminster,77772.0,1.4639949504077396,0.4563760380610699,1.1835409191492317,2,SW1E 6LB,Westminster,133283
205.0,Buckingham Gate,2290000.0,Flat / Apartment,1604.0,2.0,2.0,2.0,St. James's,London,SW1E 6LB,51.499607,-0.140381,303.0,1.922912391201813,Westminster,77772.0,1.4639949504077396,0.4563760380610699,1.1835409191492317,2,SW1E 6LB,Westminster,133283
492.0,Buckingham Gate,1990000.0,Flat / Apartment,1560.0,2.0,2.0,2.0,St. James's,London,SW1E 6LB,51.499607,-0.140381,3213.0,1.922912391201813,Westminster,77772.0,1.4639949504077396,0.4563760380610699,1.1835409191492317,2,SW1E 6LB,Westminster,133283
104.0,Camelot Close,1995000.0,House,1841.0,5.0,5.0,5.0,Wimbledon,London,SW19 7EA,51.43135,-0.20254,7842.0,10.52324217876034,Merton,15374.0,1.561196593972254,1.065884348579558,1.3790325457475816,3,SW19 7EA,Merton,132704
105.0,Clarendon Close,1000000.0,House,1154.0,4.0,4.0,4.0,South Hackney,London,E9 7BY,51.539621,-0.048474,9918.0,5.857074900250089,Hackney,35196.0,0.8414584202141816,1.92160264916872,1.6336716120090011,3,E9 7BY,Hackney,33494
106.0,Klea Avenue,1795000.0,House,2314.0,5.0,5.0,5.0,,London,SW4 9HG,51.453845,-0.141719,4354.0,6.445137323485477,Lambeth,36982.0,2.288148126081135,0.4239082368123183,2.9689546482111258,3,SW4 9HG,Lambeth,138944
107.0,Manor Place Depot,687500.0,New development,1178.0,3.0,3.0,3.0,,London,SE17 3BD,51.489057,-0.097247,1336.0,2.730336785089272,Southwark,39684.0,1.763640345189127,0.7180024053400418,0.9199460675326464,5,SE17 3BD,Southwark,106701
108.0,Molyneux Street,2450000.0,House,1483.0,3.0,3.0,3.0,,London,W1H 5HW,51.517882,-0.164049,285.0,3.3126508496244256,Westminster,77772.0,0.3656471308581358,0.3188859242230672,0.8063304152015868,3,W1H 5HW,Westminster,164826
109.0,Gatti House,3500000.0,Flat / Apartment,1770.0,2.0,2.0,2.0,410 Strand,London,WC2R 0NR,51.510152,-0.122827,411.0,0.3302759926198873,Westminster,77772.0,1.1413793717749487,0.2336271852321224,0.3288201792538925,2,WC2R 0NR,Westminster,179327
111.0,Thornhill Crescent,850000.0,Flat / Apartment,773.0,2.0,2.0,2.0,Barnsbury,London,N1 1BJ,51.541313,-0.114508,630.0,3.5076819319053496,Islington,31022.0,1.6449826603601028,0.9084071304844522,0.6929452237188772,2,N1 1BJ,Islington,60713
355.0,Thornhill Crescent,2850000.0,House,2857.0,5.0,5.0,5.0,Islington,London,N1 1BJ,51.541313,-0.114508,1502.0,3.5076819319053496,Islington,31022.0,1.6449826603601028,0.9084071304844522,0.6929452237188772,3,N1 1BJ,Islington,60713
1310.0,Thornhill Crescent,499950.0,Flat / Apartment,388.0,1.0,1.0,1.0,,London,N1 1BJ,51.541313,-0.114508,5101.0,3.5076819319053496,Islington,31022.0,1.6449826603601028,0.9084071304844522,0.6929452237188772,2,N1 1BJ,Islington,60713
112.0,Belsize Square,780000.0,Flat / Apartment,654.0,2.0,2.0,2.0,,London,NW3 4HL,51.547419,-0.169019,1664.0,5.472454429454967,Camden,39733.0,0.430810932560191,0.7867257572346865,0.3410514791992743,2,NW3 4HL,Camden,85166
114.0,Sylvan Gardens,1499950.0,House,2982.0,5.0,5.0,5.0,Surbiton,Surrey,KT6 6PP,51.38584,-0.310857,403.0,19.2350646280884,Kingston upon Thames,13398.0,3.7882527975810456,8.286136162970772,1.623007017847698,3,KT6 6PP,Kingston upon Thames,59778
115.0,Milton Road,900000.0,House,1081.0,3.0,3.0,3.0,,London,SW14 8JP,51.466015,-0.265788,635.0,11.359751693094442,Richmond upon Thames,13431.0,3.863886167527213,2.489435502456795,0.7536584199091857,3,SW14 8JP,Richmond upon Thames,126535
850.0,Milton Road,945000.0,House,1112.0,3.0,3.0,3.0,East Sheen,London,SW14 8JP,51.466015,-0.265788,933.0,11.359751693094442,Richmond upon Thames,13431.0,3.863886167527213,2.489435502456795,0.7536584199091857,3,SW14 8JP,Richmond upon Thames,126535
117.0,Chiswick High Road,575000.0,Flat / Apartment,773.0,2.0,2.0,2.0,Chiswick,London,W4 4AG,51.492454,-0.272549,630.0,10.898827746810344,Hounslow,28088.0,3.612889373119523,1.2529961895919943,1.507017550848625,2,W4 4AG,Hounslow,172805
118.0,Bewick Street,1250000.0,House,1708.0,5.0,5.0,5.0,,London,SW8 3TA,51.470505,-0.14719,2340.0,4.822968215400218,Wandsworth,27388.0,1.76715301552755,1.721034220652722,1.7851863031984916,3,SW8 3TA,Wandsworth,142108
119.0,Overstrand Mansions,1575000.0,Flat / Apartment,1580.0,3.0,3.0,3.0,Prince of Wales Drive,London,SW11 4EZ,51.475145,-0.157442,9209.0,4.731877025120972,Wandsworth,27388.0,1.5335581090066324,1.905057929281783,0.93098576469571,2,SW11 4EZ,Wandsworth,124580
120.0,Somerset Road,4750000.0,House,6602.0,6.0,6.0,6.0,Wimbledon,London,SW19 5JZ,51.433957,-0.220173,316.0,11.028725699248453,Merton,15374.0,0.3285181408934761,1.6889943359692996,1.2296179609414903,3,SW19 5JZ,Merton,132377
121.0,Burleigh Place,1175000.0,House,1909.0,4.0,4.0,4.0,Putney,London,SW15 6ES,51.459042,-0.219326,3879.0,9.023501331812849,Wandsworth,27388.0,0.854920882177216,1.2328085704015757,1.703154654417932,3,SW15 6ES,Wandsworth,127696
123.0,Freshford Street,1200000.0,House,1771.0,4.0,4.0,4.0,,London,SW18 3TF,51.436391,-0.18536,701.0,9.416360055174898,Wandsworth,27388.0,1.1894657382339302,1.5558994293551565,2.070689068136189,3,SW18 3TF,Wandsworth,130893
469.0,Freshford Street,1200000.0,House,1751.0,4.0,4.0,4.0, Wandsworth,London,SW18 3TF,51.436391,-0.18536,935.0,9.416360055174898,Wandsworth,27388.0,1.1894657382339302,1.5558994293551565,2.070689068136189,3,SW18 3TF,Wandsworth,130893
124.0,Ellerton Road,1700000.0,House,2374.0,5.0,5.0,5.0,Wandsworth,London,SW18 3NH,51.442089,-0.174731,2119.0,8.505610790959846,Wandsworth,27388.0,1.57893052055199,1.2583255213617477,1.5923028761673987,3,SW18 3NH,Wandsworth,130814
125.0,Ladbroke Crescent & Basement,1000000.0,House,2125.0,2.0,2.0,2.0,131 Ladbroke Grove,London,W11 1PS,51.51595,-0.210089,1683.0,6.422296955787987,Kensington and Chelsea,25843.0,0.879675335128283,0.1428374855692866,0.96027353395733,3,W11 1PS,Kensington and Chelsea,159000
126.0,Barts Square,1635000.0,New development,903.0,2.0,2.0,2.0, City Of London,London,EC1A 9DS,51.518602,-0.100127,49.0,1.5811984744519765,City of London,35050.269230769234,0.0897937596266729,0.2019056544745215,0.4248566997038413,5,EC1A 9DS,City of London,33868
669.0,Barts Square,1650000.0,New development,1259.0,3.0,3.0,3.0, Smithfield Market,London,EC1A 9DS,51.518602,-0.100127,1862.0,1.5811984744519765,City of London,35050.269230769234,0.0897937596266729,0.2019056544745215,0.4248566997038413,5,EC1A 9DS,City of London,33868
128.0,Gleneldon Road,1850000.0,House,3753.0,6.0,6.0,6.0,,London,SW16 2BZ,51.427009,-0.121863,1334.0,9.222052808840516,Lambeth,36982.0,3.5520769391725646,2.8074735642115174,2.944077919054907,3,SW16 2BZ,Lambeth,128146
129.0,Windsor Court,2400000.0,Flat / Apartment,1736.0,4.0,4.0,4.0, Bayswater,London,W2 4SN,51.51273,-0.189549,401.0,4.971014087219307,Westminster,77772.0,1.1423997907852044,0.1342429306255916,0.51589061763129,2,W2 4SN,Westminster,170628
130.0,Southbank Place,1200000.0,New development,590.0,1.0,1.0,1.0, South Bank,London,SE1 7NJ,51.50304,-0.115583,341.0,0.7790614226255168,Lambeth,36982.0,0.385336636177472,0.1486302306508957,0.6387063948248702,5,SE1 7NJ,Lambeth,100663
132.0,Haldane Road,1250000.0,House,1298.0,2.0,2.0,2.0,,London,SW6 7EU,51.482755,-0.202133,5577.0,6.569634231180158,Hammersmith and Fulham,24060.0,1.316724627113348,0.9379646918026944,1.328236108991345,3,SW6 7EU,Hammersmith and Fulham,140663
133.0,Chipstead Street,2300000.0,House,1912.0,3.0,3.0,3.0, Fulham,London,SW6 3SS,51.47307,-0.195151,406.0,6.738149490982736,Hammersmith and Fulham,24060.0,1.5928879088043488,1.1111296272940443,0.8717559870314627,3,SW6 3SS,Hammersmith and Fulham,140019
135.0,Sydney House,1300000.0,Flat / Apartment,1465.0,3.0,3.0,3.0,Woodstock Road,London,W4 1DP,51.496779,-0.255544,610.0,9.654452428998018,Ealing,35050.269230769234,2.516479328322879,1.3976948300559855,0.7368727644553251,2,W4 1DP,Ealing,172173
136.0,Waldemar Avenue,1750000.0,House,1580.0,4.0,4.0,4.0,Fulham,London,SW6 5NA,51.473175,-0.210857,369.0,7.627143623405702,Hammersmith and Fulham,24060.0,1.6711558012881758,0.5869655974357814,1.7330738664151617,3,SW6 5NA,Hammersmith and Fulham,140328
137.0,Newstead Way,1495000.0,House,2300.0,4.0,4.0,4.0,,London,SW19 5HR,51.432961,-0.217377,834.0,10.990886068853978,Merton,15374.0,0.5502819317311634,1.485043737987806,1.2776627186184268,3,SW19 5HR,Merton,132356
138.0,Crescent Road,1855000.0,House,2917.0,5.0,5.0,5.0,Kingston upon Thames,Surrey,KT2 7RD,51.41947,-0.283471,9267.0,15.271908047489267,Kingston upon Thames,13398.0,0.4213010007738414,5.023587507569425,0.8579592268647125,3,KT2 7RD,Kingston upon Thames,57818
139.0,Melody Road,1625000.0,House,1953.0,4.0,4.0,4.0,,London,SW18 2QF,51.456544,-0.183654,6512.0,7.478960514460806,Wandsworth,27388.0,1.2391915857645843,2.174219478576439,0.17204370165885,3,SW18 2QF,Wandsworth,130631
343.0,Melody Road,600000.0,Flat / Apartment,1024.0,1.0,1.0,1.0,,London,SW18 2QF,51.456544,-0.183654,4506.0,7.478960514460806,Wandsworth,27388.0,1.2391915857645843,2.174219478576439,0.17204370165885,2,SW18 2QF,Wandsworth,130631
1458.0,Melody Road,1750000.0,House,2266.0,5.0,5.0,5.0,Wandsworth,London,SW18 2QF,51.456544,-0.183654,7585.0,7.478960514460806,Wandsworth,27388.0,1.2391915857645843,2.174219478576439,0.17204370165885,3,SW18 2QF,Wandsworth,130631
140.0,Hasker Street,3150000.0,House,1449.0,3.0,3.0,3.0,,London,SW3 2LE,51.494791,-0.165294,6512.0,3.681724520104028,Kensington and Chelsea,25843.0,0.7164680608246333,0.589398756583515,0.7798620933887231,3,SW3 2LE,Kensington and Chelsea,137406
141.0,Spring Terrace,5250000.0,House,4745.0,7.0,7.0,7.0,Richmond,Surrey,TW9 1LW,51.460579,-0.299837,3150.0,13.763981312587154,Richmond upon Thames,13431.0,2.254198254528086,0.311822482221962,0.81419070451613,3,TW9 1LW,Richmond upon Thames,150768
1570.0,Spring Terrace,2850000.0,House,2934.0,5.0,5.0,5.0,Richmond,Surrey,TW9 1LW,51.460579,-0.299837,1026.0,13.763981312587154,Richmond upon Thames,13431.0,2.254198254528086,0.311822482221962,0.81419070451613,3,TW9 1LW,Richmond upon Thames,150768
142.0,Montague Road,6000000.0,House,4798.0,6.0,6.0,6.0,Richmond,Surrey,TW10 6QW,51.455817,-0.298876,2817.0,13.923849736445035,Richmond upon Thames,13431.0,2.671837321456458,0.8413280604660985,0.7914469388566582,3,TW10 6QW,Richmond upon Thames,144609
143.0,Fairfax Mews,1395000.0,House,1902.0,5.0,5.0,5.0,Putney,London,SW15 6FF,51.462243,-0.226414,3841.0,9.20250463570222,Wandsworth,27388.0,1.441651619731159,1.3734378457371874,2.0155236751636885,3,SW15 6FF,Wandsworth,127702
1323.0,Fairfax Mews,2000000.0,House,2149.0,5.0,5.0,5.0,Putney,London,SW15 6FF,51.462243,-0.226414,390.0,9.20250463570222,Wandsworth,27388.0,1.441651619731159,1.3734378457371874,2.0155236751636885,3,SW15 6FF,Wandsworth,127702
144.0,Fairacres,1385000.0,Flat / Apartment,2056.0,3.0,3.0,3.0, Putney,London,SW15 5LX,51.461605,-0.24439,2318.0,10.285603303079734,Wandsworth,27388.0,2.43512380505924,2.5639620693677907,0.8430286478509211,2,SW15 5LX,Wandsworth,127566
237.0,Fairacres,1000000.0,Flat / Apartment,1777.0,3.0,3.0,3.0, Putney,London,SW15 5LX,51.461605,-0.24439,955.0,10.285603303079734,Wandsworth,27388.0,2.43512380505924,2.5639620693677907,0.8430286478509211,2,SW15 5LX,Wandsworth,127566
3147.0,Fairacres,1325000.0,Flat / Apartment,2403.0,4.0,4.0,4.0, Putney,London,SW15 5LX,51.461605,-0.24439,323.0,10.285603303079734,Wandsworth,27388.0,2.43512380505924,2.5639620693677907,0.8430286478509211,2,SW15 5LX,Wandsworth,127566
145.0,Clapham Common South Side,800000.0,Flat / Apartment,922.0,2.0,2.0,2.0,,London,SW4 9DX,51.452973,-0.146864,4506.0,6.637742176626604,Lambeth,36982.0,2.041420527639309,0.0542564378987136,2.618621598850312,2,SW4 9DX,Lambeth,138921
1048.0,Clapham Common South Side,800000.0,Flat / Apartment,992.0,2.0,2.0,2.0,,London,SW4 9DX,51.452973,-0.146864,93.0,6.637742176626604,Lambeth,36982.0,2.041420527639309,0.0542564378987136,2.618621598850312,2,SW4 9DX,Lambeth,138921
2409.0,Clapham Common South Side,695000.0,Flat / Apartment,848.0,2.0,2.0,2.0,,London,SW4 9DX,51.452973,-0.146864,884.0,6.637742176626604,Lambeth,36982.0,2.041420527639309,0.0542564378987136,2.618621598850312,2,SW4 9DX,Lambeth,138921
146.0,Ormond Yard,3695000.0,House,2316.0,4.0,4.0,4.0,St James's,London,SW1Y 6JT,51.508171,-0.136742,2091.0,1.3084549463334323,Westminster,77772.0,1.50483426177611,0.2773088628144857,0.43461459012693,3,SW1Y 6JT,Westminster,135630
147.0,Cadogan Square,2200000.0,Flat / Apartment,1195.0,2.0,2.0,2.0,,London,SW1X 0JL,51.495903,-0.161691,3922.0,3.4026197092667023,Kensington and Chelsea,25843.0,0.9781442092350604,0.4878619979513569,1.0359914392294711,2,SW1X 0JL,Kensington and Chelsea,135117
148.0,Cadogan Square,1175000.0,Flat / Apartment,687.0,2.0,2.0,2.0,,London,SW1X 0JL,51.495903,-0.161691,955.0,3.4026197092667023,Kensington and Chelsea,25843.0,0.9781442092350604,0.4878619979513569,1.0359914392294711,2,SW1X 0JL,Kensington and Chelsea,135117
149.0,Aubrey Walk,9500000.0,House,4815.0,5.0,5.0,5.0,,London,W8 7JG,51.506523,-0.201078,871.0,5.773542417261531,Kensington and Chelsea,25843.0,1.4290893108982845,0.4263939471430182,0.7447143094497074,3,W8 7JG,Kensington and Chelsea,176050
150.0,Oakwood Court,3100000.0,Flat / Apartment,2470.0,4.0,4.0,4.0,Holland Park,London,W14 8JS,51.499729,-0.206676,1319.0,6.253199417654423,Kensington and Chelsea,25843.0,1.1678069880246584,0.9785277040720968,0.6127081111076712,2,W14 8JS,Kensington and Chelsea,161331
151.0,Barnsbury Park,5500000.0,House,3674.0,4.0,4.0,4.0,Islington,London,N1 1HQ,51.542852,-0.108993,835.0,3.72400835721155,Islington,31022.0,1.4513525560598777,0.505328225330892,0.8621252163304304,3,N1 1HQ,Islington,60799
152.0,Fieldsway House,925000.0,Flat / Apartment,1012.0,3.0,3.0,3.0, Highbury,London,N5 1QA,51.54941,-0.105288,805.0,4.488538768288418,Islington,31022.0,1.4582306776831433,0.3808952656530145,0.3099024466999232,2,N5 1QA,Islington,74584
154.0,Mare Street,260000.0,Studio,381.0,0.0,0.0,0.0,Hackney,London,E8 3RH,51.539479,-0.056586,836.0,5.392359633612396,Hackney,35196.0,0.954708511879566,2.265804599713966,1.3680158425933544,7,E8 3RH,Hackney,32766
155.0,Reliance Wharf,550000.0,Flat / Apartment,547.0,1.0,1.0,1.0,Hertford Road,London,N1 5ET,51.536959,-0.078799,474.0,4.0649754569636745,Hackney,35196.0,0.4081883356091062,1.402063944754878,0.1367803814006459,2,N1 5ET,Hackney,61729
1083.0,Reliance Wharf,435000.0,Flat / Apartment,527.0,1.0,1.0,1.0,Islington,London,N1 5ET,51.536959,-0.078799,815.0,4.0649754569636745,Hackney,35196.0,0.4081883356091062,1.402063944754878,0.1367803814006459,2,N1 5ET,Hackney,61729
156.0,Gayton Road,2400000.0,House,2202.0,5.0,5.0,5.0,Hampstead,London,NW3 1TU,51.556332,-0.175455,708.0,6.524656244721388,Camden,39733.0,0.7107646717430767,1.08541428042811,1.3095151299925876,3,NW3 1TU,Camden,84709
157.0,Ram Quarter,580000.0,New development,460.0,1.0,1.0,1.0, Wandsworth,London,SW18 1TH,51.458908,-0.191108,797.0,7.607017493721794,Wandsworth,27388.0,1.547495564311376,1.6031515893474533,0.6331240158625033,5,SW18 1TH,Wandsworth,130462
158.0,Grimston Road,2300000.0,House,2785.0,5.0,5.0,5.0,Fulham,London,SW6 3QR,51.47022,-0.206926,822.0,7.584484765595503,Hammersmith and Fulham,24060.0,1.9861712035202488,0.281294438585584,1.626004391300054,3,SW6 3QR,Hammersmith and Fulham,139986
159.0,Balham Grove,1200000.0,House,1270.0,3.0,3.0,3.0,,London,SW12 8BE,51.448363,-0.152735,253.0,7.253474236893479,Wandsworth,27388.0,2.125850742473854,0.5637457461557754,2.323236911095038,3,SW12 8BE,Wandsworth,125499
160.0,Fernside Road,1500000.0,House,1934.0,5.0,5.0,5.0,,London,SW12 8LH,51.445836,-0.159572,902.0,7.684517761845515,Wandsworth,27388.0,2.153063275829308,1.092544237743088,2.0076099128107217,3,SW12 8LH,Wandsworth,125584
161.0,Walsingham Place,2250000.0,House,2605.0,5.0,5.0,5.0,,London,SW4 9RR,51.454537,-0.153609,8712.0,6.631707829653556,Wandsworth,27388.0,1.5683057202164352,0.453731270672829,2.140166044807917,3,SW4 9RR,Wandsworth,139033
162.0,Englewood Road,1500000.0,House,2047.0,4.0,4.0,4.0,,London,SW12 9NZ,51.452756,-0.145088,1075.0,6.624792439838628,Lambeth,36982.0,2.1553847413710843,0.1720429142498705,2.743767938682324,3,SW12 9NZ,Lambeth,125833
2519.0,Englewood Road,795000.0,Flat / Apartment,882.0,2.0,2.0,2.0,,London,SW12 9NZ,51.452756,-0.145088,8442.0,6.624792439838628,Lambeth,36982.0,2.1553847413710843,0.1720429142498705,2.743767938682324,2,SW12 9NZ,Lambeth,125833
2764.0,Englewood Road,795000.0,Flat / Apartment,919.0,2.0,2.0,2.0,,London,SW12 9NZ,51.452756,-0.145088,820.0,6.624792439838628,Lambeth,36982.0,2.1553847413710843,0.1720429142498705,2.743767938682324,2,SW12 9NZ,Lambeth,125833
163.0,Streathbourne Road,2150000.0,House,2850.0,5.0,5.0,5.0,,London,SW17 8RA,51.435427,-0.152466,2569.0,8.61928554916617,Wandsworth,27388.0,1.6895680925892131,0.5058893674072792,3.114438849030718,3,SW17 8RA,Wandsworth,129935
2273.0,Streathbourne Road,2000000.0,House,2680.0,6.0,6.0,6.0,,London,SW17 8RA,51.435427,-0.152466,387.0,8.61928554916617,Wandsworth,27388.0,1.6895680925892131,0.5058893674072792,3.114438849030718,3,SW17 8RA,Wandsworth,129935
164.0,Rowfant Road,1595000.0,House,2555.0,6.0,6.0,6.0,,London,SW17 7AP,51.441352,-0.156961,2962.0,8.086809659297996,Wandsworth,27388.0,1.9227504597776672,0.6497782862079705,2.4420450049909865,3,SW17 7AP,Wandsworth,129572
291.0,Rowfant Road,650000.0,Flat / Apartment,736.0,2.0,2.0,2.0,,London,SW17 7AP,51.441352,-0.156961,2760.0,8.086809659297996,Wandsworth,27388.0,1.9227504597776672,0.6497782862079705,2.4420450049909865,2,SW17 7AP,Wandsworth,129572
1565.0,Rowfant Road,1395000.0,House,2390.0,5.0,5.0,5.0,Wandsworth,London,SW17 7AP,51.441352,-0.156961,4242.0,8.086809659297996,Wandsworth,27388.0,1.9227504597776672,0.6497782862079705,2.4420450049909865,3,SW17 7AP,Wandsworth,129572
2598.0,Rowfant Road,1425000.0,House,2342.0,5.0,5.0,5.0,,London,SW17 7AP,51.441352,-0.156961,896.0,8.086809659297996,Wandsworth,27388.0,1.9227504597776672,0.6497782862079705,2.4420450049909865,3,SW17 7AP,Wandsworth,129572
165.0,Tantallon Road,1565000.0,House,2088.0,5.0,5.0,5.0,,London,SW12 8DH,51.445148,-0.158765,1487.0,7.734879434866677,Wandsworth,27388.0,2.222162713555147,1.0452540969427206,2.0953096001655656,3,SW12 8DH,Wandsworth,125518
1578.0,Tantallon Road,1425000.0,House,1980.0,5.0,5.0,5.0,,London,SW12 8DH,51.445148,-0.158765,285.0,7.734879434866677,Wandsworth,27388.0,2.222162713555147,1.0452540969427206,2.0953096001655656,3,SW12 8DH,Wandsworth,125518
166.0,Honeybrook Road,1500000.0,House,2173.0,5.0,5.0,5.0,,London,SW12 0DL,51.448688,-0.142561,2126.0,7.015463253895834,Lambeth,36982.0,2.57463153444377,0.5648190894396172,2.992842499014392,3,SW12 0DL,Lambeth,125345
167.0,Fenn Mansions,400000.0,Flat / Apartment,774.0,2.0,2.0,2.0,20 Love Lane,London,SE18 6GY,51.488594,0.065649,320.0,12.97689834170127,Greenwich,30468.0,1.503331536228543,4.503749837992611,3.724082014569576,2,SE18 6GY,Greenwich,107917
168.0,New Providence Wharf,415000.0,Flat / Apartment,525.0,1.0,1.0,1.0, Canary Wharf,London,E14 9PW,51.506291,-0.004406,7841.0,7.903027835034496,Tower Hamlets,35904.0,2.8417237989291446,0.8605617822214945,0.7627080024426276,2,E14 9PW,Tower Hamlets,22850
169.0,Enclave Court,1395000.0,Penthouse,1230.0,2.0,2.0,2.0,2 Dallington Street,London,EC1V 0BH,51.524679,-0.100174,862.0,2.064810639494608,Islington,31022.0,0.6329723712225153,0.5501276660919304,0.0954695715065505,6,EC1V 0BH,Islington,34742
3176.0,Enclave Court,1100000.0,Flat / Apartment,1056.0,1.0,1.0,1.0, Clerkenwell,London,EC1V 0BH,51.524679,-0.100174,7076.0,2.064810639494608,Islington,31022.0,0.6329723712225153,0.5501276660919304,0.0954695715065505,2,EC1V 0BH,Islington,34742
170.0,Fairfax Road,2800000.0,House,2734.0,6.0,6.0,6.0, Chiswick,London,W4 1EN,51.4979,-0.252274,8494.0,9.411495215585852,Hounslow,28088.0,2.296426707224536,1.2140391625950802,0.6406495830615664,3,W4 1EN,Hounslow,172189
171.0,Redcliffe Gardens,1195000.0,Flat / Apartment,872.0,2.0,2.0,2.0,Chelsea,London,SW10 9HA,51.485133,-0.186148,6301.0,5.46877454979216,Kensington and Chelsea,25843.0,0.2980780541146239,0.8798228990676012,1.08005857685136,2,SW10 9HA,Kensington and Chelsea,123711
172.0,Drayton Court,2750000.0,Flat / Apartment,1839.0,4.0,4.0,4.0,Drayton Gardens,London,SW10 9RH,51.488017,-0.180704,3902.0,4.981256861486836,Kensington and Chelsea,25843.0,0.3724175762462294,0.7304827446693064,0.7465078101865956,2,SW10 9RH,Kensington and Chelsea,123811
173.0,Lower Mall,6950000.0,House,5501.0,6.0,6.0,6.0,Hammersmith,London,W6 9DJ,51.489932,-0.231865,3524.0,8.205831358777377,Hammersmith and Fulham,24060.0,0.8088079954033732,0.5430521429867183,0.4304591774145591,3,W6 9DJ,Hammersmith and Fulham,174808
967.0,Lower Mall,650000.0,Flat / Apartment,743.0,2.0,2.0,2.0,,London,W6 9DJ,51.489932,-0.231865,878.0,8.205831358777377,Hammersmith and Fulham,24060.0,0.8088079954033732,0.5430521429867183,0.4304591774145591,2,W6 9DJ,Hammersmith and Fulham,174808
174.0,Albert Bridge Road,2750000.0,House,2675.0,4.0,4.0,4.0,Battersea,London,SW11 4PX,51.473538,-0.163339,2920.0,5.119627602008307,Wandsworth,27388.0,1.170897624015672,2.135499540299635,0.6565870101751258,3,SW11 4PX,Wandsworth,124657
175.0,Ridgway,525000.0,Flat / Apartment,514.0,2.0,2.0,2.0,Wimbledon,London,SW19 4SX,51.42051,-0.22117,450.0,12.25328867413938,Merton,15374.0,1.715733331661813,1.111756096416671,0.6216527803017063,2,SW19 4SX,Merton,132252
176.0,Lowndes Square,5450000.0,Flat / Apartment,1920.0,3.0,3.0,3.0,,London,SW1X 9HB,51.500422,-0.157964,598.0,2.961069218573755,Westminster,77772.0,1.5177801238427102,0.2155611683362238,1.4276438421274276,2,SW1X 9HB,Westminster,135398
3424.0,Lowndes Square,13500000.0,Penthouse,3402.0,3.0,3.0,3.0,,London,SW1X 9HB,51.500422,-0.157964,,2.961069218573755,Westminster,77772.0,1.5177801238427102,0.2155611683362238,1.4276438421274276,6,SW1X 9HB,Westminster,135398
177.0,Basilica Mews,2325000.0,New development,2392.0,4.0,4.0,4.0,,Thurleigh Road,SW12 8UF,51.452432,-0.155251,8082.0,6.891577147465985,Wandsworth,27388.0,1.659330844329396,0.5052354555736679,2.046374020606498,5,SW12 8UF,Wandsworth,125702
793.0,Basilica Mews,2375000.0,New development,2540.0,5.0,5.0,5.0,,Thurleigh Road,SW12 8UF,51.452432,-0.155251,798.0,6.891577147465985,Wandsworth,27388.0,1.659330844329396,0.5052354555736679,2.046374020606498,5,SW12 8UF,Wandsworth,125702
794.0,Basilica Mews,2325000.0,New development,2466.0,5.0,5.0,5.0,,Thurleigh Road,SW12 8UF,51.452432,-0.155251,15.0,6.891577147465985,Wandsworth,27388.0,1.659330844329396,0.5052354555736679,2.046374020606498,5,SW12 8UF,Wandsworth,125702
1266.0,Basilica Mews,2100000.0,New development,2132.0,4.0,4.0,4.0,,Thurleigh Road,SW12 8UF,51.452432,-0.155251,1070.0,6.891577147465985,Wandsworth,27388.0,1.659330844329396,0.5052354555736679,2.046374020606498,5,SW12 8UF,Wandsworth,125702
1327.0,Basilica Mews,2000000.0,New development,2347.0,4.0,4.0,4.0,,Thurleigh Road,SW12 8UF,51.452432,-0.155251,1829.0,6.891577147465985,Wandsworth,27388.0,1.659330844329396,0.5052354555736679,2.046374020606498,5,SW12 8UF,Wandsworth,125702
1478.0,Basilica Mews,2100000.0,New development,2132.0,4.0,4.0,4.0,,Thurleigh Road,SW12 8UF,51.452432,-0.155251,813.0,6.891577147465985,Wandsworth,27388.0,1.659330844329396,0.5052354555736679,2.046374020606498,5,SW12 8UF,Wandsworth,125702
1499.0,Basilica Mews,2485000.0,New development,2603.0,5.0,5.0,5.0,,Thurleigh Road,SW12 8UF,51.452432,-0.155251,7080.0,6.891577147465985,Wandsworth,27388.0,1.659330844329396,0.5052354555736679,2.046374020606498,5,SW12 8UF,Wandsworth,125702
178.0,Devonshire Mews South,3750000.0,House,3256.0,3.0,3.0,3.0,Marylebone,London,W1G 6QW,51.52089,-0.148879,1020.0,2.464140842333832,Westminster,77772.0,0.1513823798944017,0.3261858970482656,0.2499593140399288,3,W1G 6QW,Westminster,163927
179.0,Ovington Gardens,1750000.0,Flat / Apartment,714.0,2.0,2.0,2.0,,London,SW3 1LS,51.497534,-0.165875,1290.0,3.590266591865531,Kensington and Chelsea,25843.0,0.9219865476123676,0.3536585758138226,0.7953105551318157,2,SW3 1LS,Kensington and Chelsea,137295
180.0,Cubitt Building,750000.0,Flat / Apartment,604.0,1.0,1.0,1.0, Chelsea,London,SW1W 8QL,51.486448,-0.148781,1315.0,3.365931557932328,Westminster,77772.0,1.554465498796522,0.8423410796329794,0.1324274182293786,2,SW1W 8QL,Westminster,134898
670.0,Cubitt Building,765000.0,New development,618.0,1.0,1.0,1.0,10 Gatliff Road,London,SW1W 8QL,51.486448,-0.148781,2439.0,3.365931557932328,Westminster,77772.0,1.554465498796522,0.8423410796329794,0.1324274182293786,5,SW1W 8QL,Westminster,134898
181.0,Iverna Court,3150000.0,Flat / Apartment,1755.0,4.0,4.0,4.0,,London,W8 6TS,51.500277,-0.193716,757.0,5.358049638949889,Kensington and Chelsea,25843.0,0.591335299432432,0.0975059606093093,0.9894441357753868,2,W8 6TS,Kensington and Chelsea,175952
183.0,Waleorde Road,575000.0,Flat / Apartment,800.0,2.0,2.0,2.0,,London,SE17 1GG,51.488718,-0.095075,2777.0,2.844328393706282,Southwark,39684.0,1.7419549169978277,0.8144689520135675,0.8519875905414276,2,SE17 1GG,Southwark,106357
184.0,Louisville Road,1250000.0,House,2475.0,6.0,6.0,6.0,,London,SW17 8RU,51.434028,-0.154392,701.0,8.806346057662786,Wandsworth,27388.0,1.4940490281176078,0.4182378155587432,3.011897833818257,3,SW17 8RU,Wandsworth,129947
185.0,Langroyd Road,1150000.0,House,1703.0,4.0,4.0,4.0,,London,SW17 7PL,51.437519,-0.1631,3186.0,8.635160881869986,Wandsworth,27388.0,1.3319799023021597,0.3049901061903029,2.4498498281495094,3,SW17 7PL,Wandsworth,129701
1533.0,Langroyd Road,1195000.0,House,1823.0,5.0,5.0,5.0,,London,SW17 7PL,51.437519,-0.1631,756.0,8.635160881869986,Wandsworth,27388.0,1.3319799023021597,0.3049901061903029,2.4498498281495094,3,SW17 7PL,Wandsworth,129701
2052.0,Langroyd Road,900000.0,House,1207.0,3.0,3.0,3.0,,London,SW17 7PL,51.437519,-0.1631,5651.0,8.635160881869986,Wandsworth,27388.0,1.3319799023021597,0.3049901061903029,2.4498498281495094,3,SW17 7PL,Wandsworth,129701
186.0,Dance Square,650000.0,Flat / Apartment,584.0,1.0,1.0,1.0, Clerkenwell,London,EC1V 3AN,51.525878,-0.097558,1848.0,2.281576984699572,Islington,31022.0,0.5735832201458618,0.6655141845854058,0.2035561827240615,2,EC1V 3AN,Islington,34882
244.0,Dance Square,650000.0,Flat / Apartment,583.0,1.0,1.0,1.0,Peartree Street,Clerkenwell,EC1V 3AN,51.525878,-0.097558,3782.0,2.281576984699572,Islington,31022.0,0.5735832201458618,0.6655141845854058,0.2035561827240615,2,EC1V 3AN,Islington,34882
2484.0,Dance Square,650000.0,Flat / Apartment,495.0,1.0,1.0,1.0,,London,EC1V 3AN,51.525878,-0.097558,3313.0,2.281576984699572,Islington,31022.0,0.5735832201458618,0.6655141845854058,0.2035561827240615,2,EC1V 3AN,Islington,34882
2913.0,Dance Square,650000.0,Flat / Apartment,571.0,1.0,1.0,1.0,,London,EC1V 3AN,51.525878,-0.097558,305.0,2.281576984699572,Islington,31022.0,0.5735832201458618,0.6655141845854058,0.2035561827240615,2,EC1V 3AN,Islington,34882
187.0,Cranbrook Road,1295000.0,House,1356.0,4.0,4.0,4.0,Chiswick,London,W4 2LH,51.491924,-0.25318,2972.0,9.5904191920388,Hounslow,28088.0,2.2841431818831417,1.2266366874971388,0.5071458986479209,3,W4 2LH,Hounslow,172440
188.0,Buer Road,765000.0,Flat / Apartment,1362.0,3.0,3.0,3.0, Fulham,London,SW6 4LA,51.470521,-0.209002,1.0,7.6830948316864704,Hammersmith and Fulham,24060.0,1.99318881220524,0.276712165287867,1.7707690795596445,2,SW6 4LA,Hammersmith and Fulham,140137
189.0,Lillian Road,1100000.0,House,1420.0,3.0,3.0,3.0,Barnes,London,SW13 9JF,51.487205,-0.23645,49.0,8.59706974815746,Richmond upon Thames,13431.0,1.052385269869552,0.770723067501683,0.0877881670445552,3,SW13 9JF,Richmond upon Thames,126180
856.0,Lillian Road,1250000.0,House,1380.0,3.0,3.0,3.0,Barnes,London,SW13 9JF,51.487205,-0.23645,411.0,8.59706974815746,Richmond upon Thames,13431.0,1.052385269869552,0.770723067501683,0.0877881670445552,3,SW13 9JF,Richmond upon Thames,126180
2190.0,Lillian Road,1350000.0,House,1520.0,3.0,3.0,3.0,Barnes,London,SW13 9JF,51.487205,-0.23645,749.0,8.59706974815746,Richmond upon Thames,13431.0,1.052385269869552,0.770723067501683,0.0877881670445552,3,SW13 9JF,Richmond upon Thames,126180
190.0,Ranelagh Avenue,2350000.0,House,2153.0,4.0,4.0,4.0,Barnes,London,SW13 0BL,51.471691,-0.241152,908.0,9.544146438473172,Richmond upon Thames,13431.0,2.179378320461144,2.27360443281608,1.1990990987943142,3,SW13 0BL,Richmond upon Thames,125928
192.0,Weller Court,1750000.0,Flat / Apartment,732.0,1.0,1.0,1.0, Holland Park,London,W11 3NT,51.508614,-0.204944,1664.0,6.0314339648410105,Kensington and Chelsea,25843.0,1.764353903327239,0.5867539453030616,0.6396997148020936,2,W11 3NT,Kensington and Chelsea,159315
195.0,Stuart Tower,475000.0,Flat / Apartment,525.0,1.0,1.0,1.0,105 Maida Vale,London,W9 1UJ,51.528035,-0.181416,8181.0,4.838025494501126,Westminster,77772.0,0.73354250689517,0.3641898007214603,0.8842749061122448,2,W9 1UJ,Westminster,176398
196.0,Abbey Road Cross,752500.0,New development,874.0,2.0,2.0,2.0,131-143 Belsize Road,London,NW6 4BR,51.539472,-0.187583,3371.0,5.840446639716711,Camden,39733.0,0.978129830294822,0.982717835066094,0.5726546128196752,5,NW6 4BR,Camden,87975
197.0,Ardleigh Road,1399950.0,House,1748.0,4.0,4.0,4.0,,De Beauvoir,N1 4FA,51.54354,-0.08325,2699.0,4.459156425122718,Hackney,35196.0,0.3886625142353799,1.4604004952359857,0.715413648672189,3,N1 4FA,Hackney,61551
200.0,Clapham Common West Side,2995000.0,House,3406.0,5.0,5.0,5.0,Between The Commons,London,SW4 9AU,51.456554,-0.155542,2245.0,6.476691447426706,Wandsworth,27388.0,1.3204889342919734,0.6947128354149299,2.0117622038968426,3,SW4 9AU,Wandsworth,138889
201.0,Parkfield Avenue,1825000.0,House,2500.0,5.0,5.0,5.0,,London,SW14 8DY,51.463649,-0.258391,3764.0,11.018572261533242,Richmond upon Thames,13431.0,3.421702382193945,2.9844697826936484,0.2961155995592279,3,SW14 8DY,Richmond upon Thames,126495
202.0,Sutherland House,550000.0,Flat / Apartment,609.0,2.0,2.0,2.0,137-139 Queenstown Road,London,SW8 3RJ,51.470554,-0.149722,2472.0,4.8943910134349045,Wandsworth,27388.0,1.610863188720455,1.8955072780611648,1.6263038196959154,2,SW8 3RJ,Wandsworth,142085
203.0,Hambalt Road,1850000.0,House,2516.0,5.0,5.0,5.0,,London,SW4 9EL,51.454498,-0.13808,315.0,6.31454699683462,Lambeth,36982.0,2.47959418136198,0.6870738913616699,3.219385447583751,3,SW4 9EL,Lambeth,138931
204.0,Ormond House,625000.0,Flat / Apartment,428.0,1.0,1.0,1.0, Westminster,London,SW1P 2TB,51.495972,-0.13191,397.0,1.8192814437517,Westminster,77772.0,0.9894463759220216,0.4281308763006557,1.0082695618763085,2,SW1P 2TB,Westminster,133683
3065.0,Ormond House,730000.0,Flat / Apartment,626.0,2.0,2.0,2.0,Medway Street,London,SW1P 2TB,51.495972,-0.13191,2407.0,1.8192814437517,Westminster,77772.0,0.9894463759220216,0.4281308763006557,1.0082695618763085,2,SW1P 2TB,Westminster,133683
206.0,Radnor Walk,3450000.0,House,1820.0,5.0,5.0,5.0,Chelsea,London,SW3 4BN,51.487656,-0.165033,1.0,4.090364761585699,Kensington and Chelsea,25843.0,0.4300144365151972,0.7803880417591857,1.1114920054950008,3,SW3 4BN,Kensington and Chelsea,137668
207.0,King Henrys Road,995000.0,Flat / Apartment,710.0,2.0,2.0,2.0,Primrose Hill,London,NW3 3QR,51.542335,-0.158479,830.0,4.572392959891108,Camden,39733.0,1.242901129803745,0.3816741542239476,0.9509990147950652,2,NW3 3QR,Camden,85078
208.0,ICON7,450000.0,New development,538.0,1.0,1.0,1.0, Holloway,London,N7 0JN,51.552717,-0.125074,998.0,4.792201231328203,Islington,31022.0,1.8263247288446764,0.6189291143070589,0.8177686452300927,5,N7 0JN,Islington,75459
312.0,ICON7,620000.0,New development,786.0,2.0,2.0,2.0, Holloway,London,N7 0JN,51.552717,-0.125074,335.0,4.792201231328203,Islington,31022.0,1.8263247288446764,0.6189291143070589,0.8177686452300927,5,N7 0JN,Islington,75459
407.0,ICON7,560000.0,New development,657.0,2.0,2.0,2.0, Holloway,London,N7 0JN,51.552717,-0.125074,1310.0,4.792201231328203,Islington,31022.0,1.8263247288446764,0.6189291143070589,0.8177686452300927,5,N7 0JN,Islington,75459
408.0,ICON7,610000.0,New development,758.0,2.0,2.0,2.0, Holloway,London,N7 0JN,51.552717,-0.125074,766.0,4.792201231328203,Islington,31022.0,1.8263247288446764,0.6189291143070589,0.8177686452300927,5,N7 0JN,Islington,75459
409.0,ICON7,600000.0,New development,758.0,2.0,2.0,2.0, Holloway,London,N7 0JN,51.552717,-0.125074,1698.0,4.792201231328203,Islington,31022.0,1.8263247288446764,0.6189291143070589,0.8177686452300927,5,N7 0JN,Islington,75459
480.0,ICON7,420000.0,New development,538.0,1.0,1.0,1.0, Holloway,London,N7 0JN,51.552717,-0.125074,915.0,4.792201231328203,Islington,31022.0,1.8263247288446764,0.6189291143070589,0.8177686452300927,5,N7 0JN,Islington,75459
209.0,Montgomery Road,850000.0,Flat / Apartment,935.0,2.0,2.0,2.0,Chiswick,London,W4 5LZ,51.495914,-0.268773,3148.0,10.577208860483903,Ealing,35050.269230769234,3.1590243170227,1.0863229134967158,1.5818477727463325,2,W4 5LZ,Ealing,173064
210.0,Carlton Mansions,975000.0,Flat / Apartment,950.0,2.0,2.0,2.0, Maida Vale,London,W9 1NP,51.531764,-0.18861,2115.0,5.4674605235319085,Westminster,77772.0,0.9733646598990868,0.2893644030430742,0.295165365710318,2,W9 1NP,Westminster,176312
211.0,Palace Gardens Terrace,1850000.0,Flat / Apartment,924.0,3.0,3.0,3.0,,London,W8 4SA,51.506106,-0.192693,1161.0,5.196283734186303,Kensington and Chelsea,25843.0,1.223054071009347,0.3528196882042663,0.8525889354581848,2,W8 4SA,Kensington and Chelsea,175628
212.0,Acer Road,940000.0,House,1074.0,3.0,3.0,3.0,Hackney,London,E8 3GX,51.543396,-0.070495,1194.0,4.982845833433648,Hackney,35196.0,1.2362344753504064,2.307226965980101,0.8110336793809682,3,E8 3GX,Hackney,32687
213.0,Corkran Road,1595000.0,House,3261.0,5.0,5.0,5.0,Surbiton,Surrey,KT6 6PN,51.386604,-0.30521,7580.0,18.90181654699601,Kingston upon Thames,13398.0,3.51481168413761,7.883967643910083,1.490021225040408,3,KT6 6PN,Kingston upon Thames,59777
214.0,Grosvenor Avenue,1275000.0,House,1779.0,4.0,4.0,4.0,,London,SW14 8BT,51.466108,-0.25811,5094.0,10.87590033944801,Richmond upon Thames,13431.0,3.44519399382006,3.0206532608862298,0.2348890313678256,3,SW14 8BT,Richmond upon Thames,126477
215.0,Enmore Gardens,1325000.0,House,1541.0,4.0,4.0,4.0,,London,SW14 8RF,51.459222,-0.262446,3257.0,11.501976058121176,Richmond upon Thames,13431.0,3.554328073008057,2.7388138994291613,0.8482994646642503,3,SW14 8RF,Richmond upon Thames,126613
1620.0,Enmore Gardens,1100000.0,House,1345.0,4.0,4.0,4.0,East Sheen,London,SW14 8RF,51.459222,-0.262446,2125.0,11.501976058121176,Richmond upon Thames,13431.0,3.554328073008057,2.7388138994291613,0.8482994646642503,3,SW14 8RF,Richmond upon Thames,126613
1800.0,Enmore Gardens,1500000.0,House,1580.0,4.0,4.0,4.0,,London,SW14 8RF,51.459222,-0.262446,1.0,11.501976058121176,Richmond upon Thames,13431.0,3.554328073008057,2.7388138994291613,0.8482994646642503,3,SW14 8RF,Richmond upon Thames,126613
217.0,Grandison Road,865000.0,Flat / Apartment,880.0,2.0,2.0,2.0,,London,SW11 6LN,51.457072,-0.16043,623.0,6.56879592737906,Wandsworth,27388.0,1.0329635583158203,1.0053862133284457,1.680060278629993,2,SW11 6LN,Wandsworth,125055
218.0,Lavender Sweep,650000.0,Flat / Apartment,859.0,2.0,2.0,2.0,,London,SW11 1EA,51.46171,-0.164303,2165.0,6.245598832720895,Wandsworth,27388.0,0.4912066113084159,1.530932683322166,1.5794977324969437,2,SW11 1EA,Wandsworth,123905
219.0,Hollandgreen Place,3500000.0,New development,1577.0,2.0,2.0,2.0,,London,W8 6AX,51.499389,-0.200336,7446.0,5.828219510267059,Kensington and Chelsea,25843.0,0.771846522546635,0.5638936700579434,0.9438848619839372,5,W8 6AX,Kensington and Chelsea,175816
3142.0,Hollandgreen Place,2750000.0,New development,1184.0,2.0,2.0,2.0,,London,W8 6AX,51.499389,-0.200336,9007.0,5.828219510267059,Kensington and Chelsea,25843.0,0.771846522546635,0.5638936700579434,0.9438848619839372,5,W8 6AX,Kensington and Chelsea,175816
220.0,Horsell Road,1695000.0,House,1944.0,5.0,5.0,5.0,Highbury,London,N5 1XP,51.550586,-0.107893,7879.0,4.585502633791357,Islington,31022.0,1.681311566146665,0.5710743784577064,0.0996150850602999,3,N5 1XP,Islington,74651
221.0,Avon Court,399995.0,Flat / Apartment,472.0,1.0,1.0,1.0, Canary Wharf,London,E14 7SZ,51.513798,-0.027195,3475.0,6.325453142757776,Tower Hamlets,35904.0,1.387874071992938,1.0201976518264055,1.298952601125947,2,E14 7SZ,Tower Hamlets,22431
222.0,Castelnau,5750000.0,House,4682.0,6.0,6.0,6.0,Barnes,London,SW13 9EU,51.481768,-0.236032,439.0,8.766826943622673,Richmond upon Thames,13431.0,1.1693120215237267,1.374632058211236,0.6772074592226975,3,SW13 9EU,Richmond upon Thames,126161
223.0,Lower Belgrave Street,4650000.0,House,2865.0,4.0,4.0,4.0,Belgravia,London,SW1W 0LN,51.496874,-0.147922,928.0,2.525697823086293,Westminster,77772.0,1.8016862282143893,0.28714869943729,1.0315680487570564,3,SW1W 0LN,Westminster,134739
225.0,Donne Place,2800000.0,House,1448.0,3.0,3.0,3.0,,London,SW3 2NH,51.494093,-0.167238,3733.0,3.837297560161325,Kensington and Chelsea,25843.0,0.5642915250339469,0.4495519767907149,0.6510001291343457,3,SW3 2NH,Kensington and Chelsea,137418
226.0,Oakley Road,1100000.0,Flat / Apartment,1056.0,3.0,3.0,3.0,,London,N1 3LL,51.543,-0.086518,369.0,4.288609786977494,Islington,31022.0,0.1717636924766265,1.253999359906947,0.6753396765519892,2,N1 3LL,Islington,61434
1268.0,Oakley Road,625000.0,Flat / Apartment,676.0,1.0,1.0,1.0,,London,N1 3LL,51.543,-0.086518,8500.0,4.288609786977494,Islington,31022.0,0.1717636924766265,1.253999359906947,0.6753396765519892,2,N1 3LL,Islington,61434
227.0,Goldhurst House,2650000.0,Flat / Apartment,1811.0,3.0,3.0,3.0, Parr's Way,London,W6 9AN,51.486714,-0.226493,927.0,7.956172614524466,Hammersmith and Fulham,24060.0,0.3604650982187872,0.6305878135341254,0.5026263858556121,2,W6 9AN,Hammersmith and Fulham,174772
228.0,Telford Avenue,1575000.0,House,2550.0,5.0,5.0,5.0,,London,SW2 4XL,51.442368,-0.129709,4569.0,7.552788161539169,Lambeth,36982.0,3.444650215807957,1.6959763864836928,3.0996546863173227,3,SW2 4XL,Lambeth,136494
229.0,Mandeville Courtyard,525000.0,Flat / Apartment,775.0,1.0,1.0,1.0,142 Battersea Park Road,London,SW11 4NB,51.474335,-0.15732,5437.0,4.800927308190609,Wandsworth,27388.0,1.4667078810174718,1.994887635654556,0.9685807925129902,2,SW11 4NB,Wandsworth,124628
3049.0,Mandeville Courtyard,995000.0,Flat / Apartment,1115.0,2.0,2.0,2.0, Battersea,London,SW11 4NB,51.474335,-0.15732,2284.0,4.800927308190609,Wandsworth,27388.0,1.4667078810174718,1.994887635654556,0.9685807925129902,2,SW11 4NB,Wandsworth,124628
230.0,Tufton Street,1650000.0,Flat / Apartment,1099.0,2.0,2.0,2.0,Westminster,London,SW1P 3AF,51.495594,-0.12792,3975.0,1.7282024785927956,Westminster,77772.0,0.7821568721863484,0.6076010612216843,0.7288381670778891,2,SW1P 3AF,Westminster,133696
231.0,Colosseum Terrace,850000.0,Flat / Apartment,726.0,2.0,2.0,2.0,Albany Street,London,NW1 4EB,51.52663,-0.144538,313.0,2.617038834764644,Camden,39733.0,0.3978993899218281,0.3143747200871434,0.4780722883376921,2,NW1 4EB,Camden,78460
232.0,Rede Place,2700000.0,House,1791.0,3.0,3.0,3.0,Notting Hill,London,W2 4TU,51.513771,-0.194091,452.0,5.293911664728479,Westminster,77772.0,1.4079735545756418,0.470038334971993,0.2035284280070387,3,W2 4TU,Westminster,170641
233.0,Tennyson Road,695000.0,House,795.0,2.0,2.0,2.0,Wimbledon,London,SW19 8SH,51.423917,-0.187063,8082.0,10.696243682844049,Merton,15374.0,0.8672794401260628,1.0122391554813497,0.880097503794076,3,SW19 8SH,Merton,132998
2054.0,Tennyson Road,775000.0,House,1201.0,3.0,3.0,3.0,,London,SW19 8SH,51.423917,-0.187063,410.0,10.696243682844049,Merton,15374.0,0.8672794401260628,1.0122391554813497,0.880097503794076,3,SW19 8SH,Merton,132998
234.0,Coleford Road,1400000.0,House,1799.0,4.0,4.0,4.0,London,Wandsworth,SW18 1AD,51.458874,-0.186642,1070.0,7.406681703222164,Wandsworth,27388.0,1.2651916397851328,1.8558653722384848,0.4516251992164597,3,SW18 1AD,Wandsworth,130208
1641.0,Coleford Road,1350000.0,House,1519.0,3.0,3.0,3.0,Wandsworth,London,SW18 1AD,51.458874,-0.186642,540.0,7.406681703222164,Wandsworth,27388.0,1.2651916397851328,1.8558653722384848,0.4516251992164597,3,SW18 1AD,Wandsworth,130208
235.0,St. Anns Terrace,2050000.0,House,1293.0,3.0,3.0,3.0,St John's Wood,London,NW8 6PJ,51.534522,-0.171645,25.0,4.61966654959942,Westminster,77772.0,0.2642150337040791,0.1683643439689403,0.9000753921937734,3,NW8 6PJ,Westminster,89792
236.0,Durward Street,615000.0,Flat / Apartment,972.0,2.0,2.0,2.0,Whitechapel,London,E1 5BA,51.519871,-0.060778,1431.0,4.131431715522632,Tower Hamlets,35904.0,0.1903734414484661,0.9498928175572156,0.227085706009687,2,E1 5BA,Tower Hamlets,18210
238.0,Clapham Park Road,315000.0,Flat / Apartment,526.0,1.0,1.0,1.0,,London,SW4 7EX,51.459847,-0.13124,2037.0,5.6393276531421925,Lambeth,36982.0,2.758030248816615,1.1809952036930351,2.7341295550843085,2,SW4 7EX,Lambeth,138574
239.0,Moore House,1850000.0,New development,1328.0,3.0,3.0,3.0,2 Gatliff Road,London,SW1W 8DT,51.488132,-0.150134,1496.0,3.2859488090315856,Westminster,77772.0,1.435420532905862,0.640093978961689,0.0949413375861495,5,SW1W 8DT,Westminster,134807
3345.0,Moore House,1450000.0,New development,1007.0,2.0,2.0,2.0,2 Gatliff Road,London,SW1W 8DT,51.488132,-0.150134,,3.2859488090315856,Westminster,77772.0,1.435420532905862,0.640093978961689,0.0949413375861495,5,SW1W 8DT,Westminster,134807
3347.0,Moore House,1050000.0,New development,1010.0,3.0,3.0,3.0, Grosvenor Waterside,London,SW1W 8DT,51.488132,-0.150134,,3.2859488090315856,Westminster,77772.0,1.435420532905862,0.640093978961689,0.0949413375861495,5,SW1W 8DT,Westminster,134807
240.0,Graham Terrace,2895000.0,House,1289.0,3.0,3.0,3.0,,London,SW1W 8HN,51.491161,-0.154636,1984.0,3.2817472332650826,Westminster,77772.0,1.1399774027030385,0.1807954391783742,0.5532309501961087,3,SW1W 8HN,Westminster,134828
241.0,Whiston House,450000.0,Flat / Apartment,459.0,1.0,1.0,1.0,Bingham Court,London,N1 2DH,51.541759,-0.100385,347.0,3.755240041140607,Islington,31022.0,0.8497680910934982,0.5407803875747367,0.7201712517403338,2,N1 2DH,Islington,61056
3162.0,Whiston House,550000.0,Flat / Apartment,558.0,2.0,2.0,2.0, Halton Road,London,N1 2DH,51.541759,-0.100385,2058.0,3.755240041140607,Islington,31022.0,0.8497680910934982,0.5407803875747367,0.7201712517403338,2,N1 2DH,Islington,61056
242.0,Grand Avenue,500000.0,House,963.0,2.0,2.0,2.0,Surbiton,Surrey,KT5 9HU,51.389623,-0.276683,2689.0,17.33519408043427,Kingston upon Thames,13398.0,2.532549919184358,5.87421389810058,1.3955075680200588,3,KT5 9HU,Kingston upon Thames,59297
243.0,Tooting Bec Road,675000.0,Flat / Apartment,949.0,2.0,2.0,2.0,,London,SW17 8BW,51.433921,-0.155033,3484.0,8.830596333451714,Wandsworth,27388.0,1.4496148130535131,0.3855398774300084,2.972691504361714,2,SW17 8BW,Wandsworth,129807
245.0,Flanders Road,1395000.0,House,1068.0,1.0,1.0,1.0,Chiswick,London,W4 1NB,51.495769,-0.250468,1392.0,9.324521301725795,Hounslow,28088.0,2.2546049156058547,1.0300069940910392,0.3828139450019456,3,W4 1NB,Hounslow,172247
247.0,Astley House,725000.0,Flat / Apartment,858.0,3.0,3.0,3.0,42 Trinity Church Road,London,SW13 8EA,51.483294,-0.230566,515.0,8.351554217829852,Richmond upon Thames,13431.0,0.7557425330525205,1.094913951523004,0.6832425473453955,2,SW13 8EA,Richmond upon Thames,126082
248.0,Suffolk Road,2000000.0,House,2525.0,4.0,4.0,4.0,Barnes,London,SW13 9PH,51.478941,-0.240634,4681.0,9.17957135505116,Richmond upon Thames,13431.0,1.6059201281210025,1.7211815979354337,0.5265161394478953,3,SW13 9PH,Richmond upon Thames,126234
249.0,Shorrolds Road,625000.0,Flat / Apartment,664.0,2.0,2.0,2.0,,London,SW6 7TP,51.481263,-0.201064,1009.0,6.582480216361728,Hammersmith and Fulham,24060.0,1.3867547242412448,1.1130021356462492,1.4704802934029222,2,SW6 7TP,Hammersmith and Fulham,140801
582.0,Shorrolds Road,785000.0,Flat / Apartment,739.0,2.0,2.0,2.0,,London,SW6 7TP,51.481263,-0.201064,7847.0,6.582480216361728,Hammersmith and Fulham,24060.0,1.3867547242412448,1.1130021356462492,1.4704802934029222,2,SW6 7TP,Hammersmith and Fulham,140801
250.0,Raynham Road,1350000.0,House,1328.0,3.0,3.0,3.0,Brackenbury Village,London,W6 0HY,51.495413,-0.233382,6773.0,8.165213342255266,Hammersmith and Fulham,24060.0,1.2142640938570166,0.2247806998115295,0.8777157351189921,3,W6 0HY,Hammersmith and Fulham,174281
251.0,Henning Street,2100000.0,House,2191.0,4.0,4.0,4.0,Battersea,London,SW11 3DR,51.473626,-0.171201,579.0,5.464575837245746,Wandsworth,27388.0,1.075402563174642,2.285991919755759,0.4404678816358688,3,SW11 3DR,Wandsworth,124308
253.0,Palewell Park,1850000.0,House,1892.0,4.0,4.0,4.0,,London,SW14 8JJ,51.461261,-0.264744,427.0,11.53311378525798,Richmond upon Thames,13431.0,3.7617175227517614,2.551992724360673,0.8102220001752326,3,SW14 8JJ,Richmond upon Thames,126533
254.0,Cranbourne Court,1500000.0,Flat / Apartment,1132.0,3.0,3.0,3.0,Albert Bridge Road,London,SW11 4PE,51.480474,-0.16643,943.0,4.686362568688592,Wandsworth,27388.0,0.7726032000998165,1.4797525482233551,0.4217556770105123,2,SW11 4PE,Wandsworth,124645
3175.0,Cranbourne Court,1500000.0,Flat / Apartment,1088.0,2.0,2.0,2.0,Albert Bridge Road,London,SW11 4PE,51.480474,-0.16643,5897.0,4.686362568688592,Wandsworth,27388.0,0.7726032000998165,1.4797525482233551,0.4217556770105123,2,SW11 4PE,Wandsworth,124645
255.0,Rothwell Street,3625000.0,House,2190.0,4.0,4.0,4.0,Primrose Hill,London,NW1 8YH,51.540502,-0.15688,389.0,4.343434124676262,Camden,39733.0,1.388212871181396,0.4519296262384684,1.1280958902711982,3,NW1 8YH,Camden,79258
256.0,New Concordia Wharf,1500000.0,Flat / Apartment,1274.0,2.0,2.0,2.0,Mill Street,London,SE1 2BB,51.50194,-0.071178,6602.0,3.3745380372462987,Southwark,39684.0,1.0904666491916506,0.6707585275746599,0.6589309409418326,2,SE1 2BB,Southwark,99448
257.0,Castelnau,525000.0,Flat / Apartment,630.0,2.0,2.0,2.0,Barnes,London,SW13 9ER,51.485224,-0.233839,3068.0,8.492624780912507,Richmond upon Thames,13431.0,0.8892527569555158,1.000110049865587,0.3726102131883209,2,SW13 9ER,Richmond upon Thames,126159
2090.0,Castelnau,1700000.0,House,2126.0,4.0,4.0,4.0,Barnes,London,SW13 9ER,51.485224,-0.233839,4222.0,8.492624780912507,Richmond upon Thames,13431.0,0.8892527569555158,1.000110049865587,0.3726102131883209,3,SW13 9ER,Richmond upon Thames,126159
258.0,Banbury House,290000.0,Flat / Apartment,455.0,1.0,1.0,1.0,Banbury Road,London,E9 7ED,51.538948,-0.04311,9214.0,6.1279362591377495,Hackney,35196.0,0.885634204311566,1.6786992284468545,1.940826709116516,2,E9 7ED,Hackney,33515
259.0,Putney Heath Lane,1725000.0,House,2931.0,5.0,5.0,5.0,Putney,London,SW15 3JG,51.451991,-0.219831,61.0,9.561003155786128,Wandsworth,27388.0,0.5233130401905743,1.938223708540712,0.9756059953154664,3,SW15 3JG,Wandsworth,127149
260.0,Rydon Street,1395000.0,House,1510.0,3.0,3.0,3.0,Islington,London,N1 7AL,51.537179,-0.091852,3910.0,3.5428330714720104,Islington,31022.0,0.5783020475922739,1.1055965981577334,0.5416403813611956,3,N1 7AL,Islington,62084
261.0,Aragon Tower,400000.0,Flat / Apartment,705.0,2.0,2.0,2.0,George Beard Road,Deptford,SE8 3AL,51.490673,-0.031723,1083.0,6.3662398265351525,Lewisham,30815.0,3.466809264782194,1.667637182319533,1.4991794098777251,2,SE8 3AL,Lewisham,117754
262.0,Cadogan Lane,3350000.0,House,1504.0,3.0,3.0,3.0,,London,SW1X 9DU,51.495053,-0.156222,2778.0,3.118598967967217,Kensington and Chelsea,25843.0,1.2021980706171218,0.3117131588793422,0.9653307128035316,3,SW1X 9DU,Kensington and Chelsea,135383
263.0,Cedar Mews,1795000.0,House,2067.0,4.0,4.0,4.0, Putney,London,SW15 6ED,51.45815,-0.22095,3618.0,9.173660116339388,Wandsworth,27388.0,0.8498500040183566,1.3797076580771146,1.6393047049297478,3,SW15 6ED,Wandsworth,127689
264.0,Tormead,600000.0,Flat / Apartment,1160.0,2.0,2.0,2.0, Northwood,Middlesex,HA6 2BX,51.613834,-0.429922,825.0,24.52379054384974,Hillingdon,28793.0,8.622055149133597,4.741613760133671,7.884708631111828,2,HA6 2BX,Hillingdon,48342
265.0,Kent Avenue,1500000.0,House,1997.0,4.0,4.0,4.0,Ealing,London,W13 8BH,51.523418,-0.321066,5176.0,14.169939339618054,Ealing,35050.269230769234,2.495638931765152,1.5013690741706158,0.986500862189004,3,W13 8BH,Ealing,160663
266.0,Trefoil Road,1600000.0,House,2149.0,4.0,4.0,4.0,Wandsworth,London,SW18 2EQ,51.456666,-0.182253,3998.0,7.4092467129435615,Wandsworth,27388.0,1.1588948094778977,2.246032436242998,0.2316245227967074,3,SW18 2EQ,Wandsworth,130554
1475.0,Trefoil Road,1450000.0,House,2136.0,5.0,5.0,5.0,,London,SW18 2EQ,51.456666,-0.182253,955.0,7.4092467129435615,Wandsworth,27388.0,1.1588948094778977,2.246032436242998,0.2316245227967074,3,SW18 2EQ,Wandsworth,130554
2963.0,Trefoil Road,1500000.0,House,2123.0,5.0,5.0,5.0,Wandsworth,London,SW18 2EQ,51.456666,-0.182253,7215.0,7.4092467129435615,Wandsworth,27388.0,1.1588948094778977,2.246032436242998,0.2316245227967074,3,SW18 2EQ,Wandsworth,130554
267.0,Thirlmere Road,1550000.0,House,3620.0,7.0,7.0,7.0,,London,SW16 1QW,51.429142,-0.13602,3574.0,9.06700732564694,Lambeth,36982.0,2.57594441243115,1.8057046821555964,3.547553140830394,3,SW16 1QW,Lambeth,128035
1486.0,Thirlmere Road,650000.0,Flat / Apartment,877.0,2.0,2.0,2.0,,London,SW16 1QW,51.429142,-0.13602,8232.0,9.06700732564694,Lambeth,36982.0,2.57594441243115,1.8057046821555964,3.547553140830394,2,SW16 1QW,Lambeth,128035
1539.0,Thirlmere Road,395000.0,Flat / Apartment,771.0,1.0,1.0,1.0,,London,SW16 1QW,51.429142,-0.13602,932.0,9.06700732564694,Lambeth,36982.0,2.57594441243115,1.8057046821555964,3.547553140830394,2,SW16 1QW,Lambeth,128035
1581.0,Thirlmere Road,650000.0,Flat / Apartment,884.0,2.0,2.0,2.0,,London,SW16 1QW,51.429142,-0.13602,406.0,9.06700732564694,Lambeth,36982.0,2.57594441243115,1.8057046821555964,3.547553140830394,2,SW16 1QW,Lambeth,128035
2743.0,Thirlmere Road,1875000.0,House,3478.0,7.0,7.0,7.0,,London,SW16 1QW,51.429142,-0.13602,3611.0,9.06700732564694,Lambeth,36982.0,2.57594441243115,1.8057046821555964,3.547553140830394,3,SW16 1QW,Lambeth,128035
268.0,The Regency,1325000.0,Flat / Apartment,1195.0,3.0,3.0,3.0, Westminster,London,SW1P 4HD,51.491968,-0.13347,976.0,2.2594415260483696,Westminster,77772.0,1.3382598120775588,0.3119781055375647,0.9936736000107442,2,SW1P 4HD,Westminster,133869
269.0,Murray Mews,1395000.0,House,1587.0,3.0,3.0,3.0,Camden,London,NW1 9RJ,51.544405,-0.130705,2987.0,3.94129512633748,Camden,39733.0,2.131718853744476,0.945315938030802,0.8056268208745112,3,NW1 9RJ,Camden,79401
270.0,Wilmington Square,735000.0,Flat / Apartment,849.0,2.0,2.0,2.0,,London,WC1X 0ER,51.526909,-0.109624,1315.0,1.9852926329834129,Islington,31022.0,0.2445081845207534,0.6775467849314878,0.5239912410679469,2,WC1X 0ER,Islington,178034
272.0,Telfords Yard,1500000.0,Flat / Apartment,2550.0,3.0,3.0,3.0,,London,E1W 2BQ,51.50895,-0.064873,578.0,3.6961960581302735,Tower Hamlets,35904.0,0.946663451432031,0.8109228191820957,0.5926550362193649,2,E1W 2BQ,Tower Hamlets,26690
1681.0,Telfords Yard,865000.0,Flat / Apartment,1115.0,2.0,2.0,2.0,,London,E1W 2BQ,51.50895,-0.064873,850.0,3.6961960581302735,Tower Hamlets,35904.0,0.946663451432031,0.8109228191820957,0.5926550362193649,2,E1W 2BQ,Tower Hamlets,26690
273.0,Landmark East Tower,679000.0,Flat / Apartment,832.0,2.0,2.0,2.0, Canary Wharf,London,E14 9DB,51.502013,-0.024765,2433.0,6.53845538414448,Tower Hamlets,35904.0,2.549533625416,0.3994418160861044,1.1605562676098231,2,E14 9DB,Tower Hamlets,22701
2005.0,Landmark East Tower,795000.0,Flat / Apartment,862.0,2.0,2.0,2.0,24 Marsh Wall,London,E14 9DB,51.502013,-0.024765,323.0,6.53845538414448,Tower Hamlets,35904.0,2.549533625416,0.3994418160861044,1.1605562676098231,2,E14 9DB,Tower Hamlets,22701
274.0,Stanley Mansions,1500000.0,Flat / Apartment,1244.0,3.0,3.0,3.0,Park Walk,London,SW10 0AG,51.485807,-0.180317,451.0,5.0829771233389,Kensington and Chelsea,25843.0,0.1606743683753344,0.9767663851130994,0.993229852493545,2,SW10 0AG,Kensington and Chelsea,123409
3195.0,Stanley Mansions,1650000.0,Flat / Apartment,1139.0,3.0,3.0,3.0, Chelsea,London,SW10 0AG,51.485807,-0.180317,2293.0,5.0829771233389,Kensington and Chelsea,25843.0,0.1606743683753344,0.9767663851130994,0.993229852493545,2,SW10 0AG,Kensington and Chelsea,123409
275.0,Ducks Hill Road,1000000.0,New development,1501.0,3.0,3.0,3.0,Northwood,Middlesex,HA6 2SB,51.610758,-0.439387,442.0,24.949286440276524,Hillingdon,28793.0,9.00841771597308,4.819864518093604,8.25633783372007,5,HA6 2SB,Hillingdon,48451
276.0,Blomfield Road,4995000.0,House,3035.0,4.0,4.0,4.0,Little Venice,London,W9 2PF,51.521643,-0.183242,1796.0,4.708508817272842,Westminster,77772.0,0.7496101285198845,0.5240267317838395,0.7674167150965014,3,W9 2PF,Westminster,176535
277.0,Wadham Road,1350000.0,House,1604.0,4.0,4.0,4.0,Putney,London,SW15 2LS,51.461816,-0.209559,226.0,8.303280736654026,Wandsworth,27388.0,1.0334316618017938,0.6930482997047304,1.903870395050127,3,SW15 2LS,Wandsworth,126970
1988.0,Wadham Road,1345000.0,House,1909.0,4.0,4.0,4.0,Putney,London,SW15 2LS,51.461816,-0.209559,47.0,8.303280736654026,Wandsworth,27388.0,1.0334316618017938,0.6930482997047304,1.903870395050127,3,SW15 2LS,Wandsworth,126970
278.0,Bingfield Street,625000.0,New development,723.0,2.0,2.0,2.0,,London,N1 0BH,51.539147,-0.117957,708.0,3.257879045906959,Islington,31022.0,1.3788416630586733,1.0432797306930512,0.3874559029754877,5,N1 0BH,Islington,60466
279.0,Orsman Road,600000.0,Flat / Apartment,660.0,2.0,2.0,2.0,Hackney,London,N1 5QL,51.536641,-0.079301,649.0,4.015371209065727,Hackney,35196.0,0.3775896002114335,1.3551029892219066,0.1816950020053509,2,N1 5QL,Hackney,61823
280.0,Cinnabar Wharf East,875000.0,Flat / Apartment,627.0,1.0,1.0,1.0,28 Wapping High Street,London,E1W 1NG,51.503799,-0.065019,577.0,3.746159443916959,Tower Hamlets,35904.0,1.5050906403672226,0.6467825849073555,0.7158295351110577,2,E1W 1NG,Tower Hamlets,26631
281.0,Boardwalk Place,565000.0,Flat / Apartment,872.0,2.0,2.0,2.0,Canary Wharf,London,E14 5SH,51.505978,-0.009795,828.0,7.531321664954831,Tower Hamlets,35904.0,2.651684758044545,0.5271896652759909,0.7452351647240856,2,E14 5SH,Tower Hamlets,21939
282.0,Carlyle Square,5850000.0,House,3128.0,5.0,5.0,5.0,,London,SW3 6EX,51.486834,-0.172296,280.0,4.553477016810044,Kensington and Chelsea,25843.0,0.0593108865193014,0.8157859741473401,0.9442906161301148,3,SW3 6EX,Kensington and Chelsea,138033
283.0,Burlington Lodge Studios,1250000.0,Flat / Apartment,1201.0,2.0,2.0,2.0,48 Rigault Road,London,SW6 4JJ,51.47152,-0.209049,820.0,7.622966550297886,Hammersmith and Fulham,24060.0,1.8892956750472465,0.3878921001629413,1.7802595730224893,2,SW6 4JJ,Hammersmith and Fulham,140130
284.0,Overstrand Mansions,1800000.0,Flat / Apartment,1453.0,3.0,3.0,3.0,Prince of Wales Drive,London,SW11 4HA,51.475212,-0.157123,827.0,4.713014879571559,Wandsworth,27388.0,1.5526439854397056,1.8970173719730248,0.950178185238644,2,SW11 4HA,Wandsworth,124591
2762.0,Overstrand Mansions,850000.0,Flat / Apartment,838.0,2.0,2.0,2.0,Prince of Wales Drive,London,SW11 4HA,51.475212,-0.157123,525.0,4.713014879571559,Wandsworth,27388.0,1.5526439854397056,1.8970173719730248,0.950178185238644,2,SW11 4HA,Wandsworth,124591
3173.0,Overstrand Mansions,1800000.0,Flat / Apartment,1386.0,3.0,3.0,3.0,Prince of Wales Drive,London,SW11 4HA,51.475212,-0.157123,5220.0,4.713014879571559,Wandsworth,27388.0,1.5526439854397056,1.8970173719730248,0.950178185238644,2,SW11 4HA,Wandsworth,124591
285.0,Eden House,1495000.0,New development,1781.0,4.0,4.0,4.0,New Road,London,N8 8TA,51.581675,-0.124832,9735.0,8.003157275719857,Haringey,33042.0,1.920646830801184,1.794770937186606,0.8441299126754613,5,N8 8TA,Haringey,76755
286.0,Fentiman Road,3100000.0,House,3800.0,8.0,8.0,8.0,,London,SW8 1QA,51.481687,-0.120338,439.0,3.138898776879937,Lambeth,36982.0,1.927601828537804,0.5050085772836542,0.4277968377728993,3,SW8 1QA,Lambeth,141673
287.0,Craven Gardens,1050000.0,Flat / Apartment,1831.0,3.0,3.0,3.0,Wimbledon,London,SW19 8LU,51.424842,-0.195114,1786.0,10.868642942436963,Merton,15374.0,1.4259282921216163,0.7821377918668084,0.6290688908538304,2,SW19 8LU,Merton,132926
1256.0,Craven Gardens,1225000.0,House,1681.0,4.0,4.0,4.0,Wimbledon,London,SW19 8LU,51.424842,-0.195114,4260.0,10.868642942436963,Merton,15374.0,1.4259282921216163,0.7821377918668084,0.6290688908538304,3,SW19 8LU,Merton,132926
288.0,Leopold Road,1850000.0,House,2503.0,5.0,5.0,5.0,Wimbledon,London,SW19 7JG,51.429677,-0.205464,4091.0,10.791300651964276,Merton,15374.0,1.448444962901984,0.8617174360443196,1.275373238403343,3,SW19 7JG,Merton,132738
289.0,Queensland Road,730000.0,Flat / Apartment,1061.0,3.0,3.0,3.0,,London,N7 7FF,51.553493,-0.107513,592.0,4.909180944571754,Islington,31022.0,1.86808863719924,0.5771103133641965,0.3458478496240542,2,N7 7FF,Islington,75753
292.0,Cleveland Gardens,2100000.0,House,2438.0,5.0,5.0,5.0,Barnes,London,SW13 0AJ,51.470761,-0.24928,869.0,10.097069185537151,Richmond upon Thames,13431.0,2.643002628622114,2.7610206798207293,0.7293649460976601,3,SW13 0AJ,Richmond upon Thames,125909
293.0,Elm Bank Gardens,2250000.0,House,2600.0,5.0,5.0,5.0,Barnes,London,SW13 0NT,51.471049,-0.253502,893.0,10.349023221583744,Richmond upon Thames,13431.0,2.8456340934919284,2.8442950801658435,0.651647297081427,3,SW13 0NT,Richmond upon Thames,126024
294.0,Belleville Road,1695000.0,House,1867.0,5.0,5.0,5.0,,London,SW11 6QT,51.456102,-0.166831,4817.0,6.8732740068736495,Wandsworth,27388.0,0.9097175269416096,1.3710577276969578,1.2257033456325572,3,SW11 6QT,Wandsworth,125102
295.0,Cottenham Park Road,1375000.0,House,1884.0,4.0,4.0,4.0,Wimbledon,London,SW20 0SB,51.415793,-0.232728,3341.0,13.15338902090769,Merton,15374.0,1.475664487896294,2.0232831195109395,0.6483849935968028,3,SW20 0SB,Merton,136881
296.0,Barmouth Road,1400000.0,House,2138.0,5.0,5.0,5.0,Wandsworth,London,SW18 2DT,51.45234,-0.18398,5821.0,7.868401831574481,Wandsworth,27388.0,1.6031438212075526,2.4622997471049133,0.3047138696217948,3,SW18 2DT,Wandsworth,130537
1959.0,Barmouth Road,750000.0,Flat / Apartment,1176.0,3.0,3.0,3.0,Wandsworth,London,SW18 2DT,51.45234,-0.18398,1035.0,7.868401831574481,Wandsworth,27388.0,1.6031438212075526,2.4622997471049133,0.3047138696217948,2,SW18 2DT,Wandsworth,130537
2298.0,Barmouth Road,1150000.0,House,1758.0,4.0,4.0,4.0,Wandsworth,London,SW18 2DT,51.45234,-0.18398,8722.0,7.868401831574481,Wandsworth,27388.0,1.6031438212075526,2.4622997471049133,0.3047138696217948,3,SW18 2DT,Wandsworth,130537
2879.0,Barmouth Road,765000.0,Flat / Apartment,993.0,2.0,2.0,2.0,Wandsworth,London,SW18 2DT,51.45234,-0.18398,5247.0,7.868401831574481,Wandsworth,27388.0,1.6031438212075526,2.4622997471049133,0.3047138696217948,2,SW18 2DT,Wandsworth,130537
297.0,St. Stephen's Gardens,635000.0,Flat / Apartment,927.0,2.0,2.0,2.0,Putney,London,SW15 2RR,51.458486,-0.205832,4506.0,8.356010672637696,Wandsworth,27388.0,0.7889735287300342,1.0842976648522469,1.5383316165310437,2,SW15 2RR,Wandsworth,127024
298.0,Upper St. Martin's Lane,2995000.0,Penthouse,1845.0,3.0,3.0,3.0,,London,WC2H 9DL,51.512872,-0.12746,1931.0,0.7313615924571905,Camden,39733.0,1.082414317481464,0.1509025514291603,0.4569225362084656,6,WC2H 9DL,Camden,179026
299.0,Egerton Gardens,1000000.0,House,1758.0,4.0,4.0,4.0,,Ealing,W13 8HQ,51.518916,-0.317527,4320.0,13.881077475849729,Ealing,35050.269230769234,2.3656260279531574,1.2337368560514614,0.709120178122382,3,W13 8HQ,Ealing,160712
300.0,Alpine Grove,449950.0,Flat / Apartment,526.0,2.0,2.0,2.0,South Hackney,London,E9 7SX,51.539674,-0.048919,3510.0,5.834970850572996,Hackney,35196.0,0.8450681033928209,1.943460130129391,1.6098264299241625,2,E9 7SX,Hackney,33646
301.0,Townshend Court,425000.0,Flat / Apartment,474.0,1.0,1.0,1.0,Shannon Place,London,NW8 7DP,51.534919,-0.166117,624.0,4.345168328583696,Westminster,77772.0,0.4959331763361048,0.5497796247331906,1.1500272560187048,2,NW8 7DP,Westminster,89864
522.0,Townshend Court,665000.0,Flat / Apartment,647.0,2.0,2.0,2.0,Shannon Place,London,NW8 7DP,51.534919,-0.166117,2647.0,4.345168328583696,Westminster,77772.0,0.4959331763361048,0.5497796247331906,1.1500272560187048,2,NW8 7DP,Westminster,89864
648.0,Townshend Court,465000.0,Flat / Apartment,473.0,1.0,1.0,1.0,Shannon Place,London,NW8 7DP,51.534919,-0.166117,641.0,4.345168328583696,Westminster,77772.0,0.4959331763361048,0.5497796247331906,1.1500272560187048,2,NW8 7DP,Westminster,89864
838.0,Townshend Court,450000.0,Flat / Apartment,460.0,1.0,1.0,1.0, St John's Wood,London,NW8 7DP,51.534919,-0.166117,3474.0,4.345168328583696,Westminster,77772.0,0.4959331763361048,0.5497796247331906,1.1500272560187048,2,NW8 7DP,Westminster,89864
2301.0,Townshend Court,475000.0,Flat / Apartment,471.0,1.0,1.0,1.0,Shannon Place,London,NW8 7DP,51.534919,-0.166117,3395.0,4.345168328583696,Westminster,77772.0,0.4959331763361048,0.5497796247331906,1.1500272560187048,2,NW8 7DP,Westminster,89864
303.0,Parkfields,1795000.0,House,1902.0,3.0,3.0,3.0,Putney,London,SW15 6NH,51.462179,-0.226906,725.0,9.234561501121355,Wandsworth,27388.0,1.4598394314575749,1.4070079567990532,1.9830430752335264,3,SW15 6NH,Wandsworth,127751
2176.0,Parkfields,2950000.0,House,3235.0,6.0,6.0,6.0,Putney,London,SW15 6NH,51.462179,-0.226906,7236.0,9.234561501121355,Wandsworth,27388.0,1.4598394314575749,1.4070079567990532,1.9830430752335264,3,SW15 6NH,Wandsworth,127751
3362.0,Parkfields,1000000.0,House,954.0,2.0,2.0,2.0,Putney,London,SW15 6NH,51.462179,-0.226906,,9.234561501121355,Wandsworth,27388.0,1.4598394314575749,1.4070079567990532,1.9830430752335264,3,SW15 6NH,Wandsworth,127751
304.0,Fitzroy Road,1600000.0,Flat / Apartment,801.0,2.0,2.0,2.0,Primrose Hill,London,NW1 8TU,51.540668,-0.153672,624.0,4.224040823527486,Camden,39733.0,1.5690078563316203,0.3766234413731213,1.0811031810774077,2,NW1 8TU,Camden,79230
305.0,The Lodge,1750000.0,Flat / Apartment,1002.0,3.0,3.0,3.0,Kensington Park Gardens,London,W11 3HA,51.510724,-0.204746,1730.0,6.016701514295333,Kensington and Chelsea,25843.0,1.569293600893387,0.5977311668557851,0.6140128041327848,2,W11 3HA,Kensington and Chelsea,159274
306.0,Culmstock Road,2050000.0,House,2275.0,5.0,5.0,5.0,,London,SW11 6LX,51.457255,-0.157184,2477.0,6.452504427126319,Wandsworth,27388.0,1.1827023896398314,0.8322011582478754,1.9064078545357164,3,SW11 6LX,Wandsworth,125061
307.0,Mallinson Road,1150000.0,Flat / Apartment,1371.0,3.0,3.0,3.0,,London,SW11 1BW,51.45824,-0.168401,2130.0,6.723293968948021,Wandsworth,27388.0,0.6524747987048733,1.557701961356227,1.1658598969847498,2,SW11 1BW,Wandsworth,123893
308.0,South Terrace,995000.0,House,2446.0,5.0,5.0,5.0,,London,SW7 2TB,51.494414,-0.169962,6407.0,3.9909194311503775,Kensington and Chelsea,25843.0,0.4788102369550479,0.2625100199384857,0.4587936983324245,3,SW7 2TB,Kensington and Chelsea,141111
3100.0,South Terrace,6750000.0,House,3719.0,5.0,5.0,5.0,,London,SW7 2TB,51.494414,-0.169962,2763.0,3.9909194311503775,Kensington and Chelsea,25843.0,0.4788102369550479,0.2625100199384857,0.4587936983324245,3,SW7 2TB,Kensington and Chelsea,141111
309.0,Douglas Road,1900000.0,House,1703.0,5.0,5.0,5.0,Islington,London,N1 2LD,51.54346,-0.094906,9099.0,4.0693745766663945,Islington,31022.0,0.5033246420121137,0.6893948278673544,0.5456512432798665,3,N1 2LD,Islington,61144
310.0,Union Wharf,675000.0,Flat / Apartment,792.0,1.0,1.0,1.0,23 Wenlock Road,London,N1 7SJ,51.532649,-0.095329,2132.0,2.9869657355023733,Hackney,35196.0,0.6880131056709328,0.7372885784191509,0.9281009212299296,2,N1 7SJ,Hackney,62292
313.0,Branch Place,650000.0,Flat / Apartment,747.0,2.0,2.0,2.0,De Beauvoir,London,N1 5PH,51.537271,-0.084684,798.0,3.830603296662726,Hackney,35196.0,0.5611594728100932,1.311610430722974,0.0470017468670913,2,N1 5PH,Hackney,61808
314.0,Hermitage Court,500000.0,Flat / Apartment,663.0,1.0,1.0,1.0,Knighten Street,London,E1W 1PW,51.504052,-0.063438,31.0,3.8493436635348193,Tower Hamlets,35904.0,1.4696274495175976,0.6700749927331237,0.7906118190303669,2,E1W 1PW,Tower Hamlets,26644
2694.0,Hermitage Court,775000.0,Flat / Apartment,832.0,3.0,3.0,3.0,Knighten Street,London,E1W 1PW,51.504052,-0.063438,8376.0,3.8493436635348193,Tower Hamlets,35904.0,1.4696274495175976,0.6700749927331237,0.7906118190303669,2,E1W 1PW,Tower Hamlets,26644
315.0,Kirkstall Road,1395000.0,House,2006.0,5.0,5.0,5.0,,London,SW2 4HF,51.442806,-0.128971,1302.0,7.498996816795175,Lambeth,36982.0,3.513264780034924,1.701778745033134,3.052541632858103,3,SW2 4HF,Lambeth,136359
1394.0,Kirkstall Road,1550000.0,House,2328.0,5.0,5.0,5.0,,London,SW2 4HF,51.442806,-0.128971,624.0,7.498996816795175,Lambeth,36982.0,3.513264780034924,1.701778745033134,3.052541632858103,3,SW2 4HF,Lambeth,136359
316.0,St. Peters Square,2950000.0,House,3597.0,4.0,4.0,4.0,,London,W6 9AJ,51.491011,-0.243794,3178.0,8.977239579650202,Hammersmith and Fulham,24060.0,1.6285072768890263,0.6500142586521891,0.3278879143401671,3,W6 9AJ,Hammersmith and Fulham,174770
